[
  {
    "retailer": "checkers",
    "store_code": "10100",
    "store_name": "Checkers FX Barlow Park",
    "latitude": -26.09946,
    "longitude": 28.07825,
    "province": "Gauteng",
    "city": "Sandton",
    "address": "Shop 35, Barlow Park Lifestyle Centre 182 Katherine Street"
  },
  {
    "retailer": "checkers",
    "store_code": "1022",
    "store_name": "Checkers Welkom",
    "latitude": -27.98022975667941,
    "longitude": 26.742149708461877,
    "province": "Free State",
    "city": "Welkom",
    "address": "Cnr Stateway and Arrarat Str"
  },
  {
    "retailer": "checkers",
    "store_code": "1030",
    "store_name": "Checkers Mokopane",
    "latitude": -24.182640494389087,
    "longitude": 29.0143460644773,
    "province": "Limpopo",
    "city": "Mokopane",
    "address": "The Crossing 56 Thabo Mbeki Drive"
  },
  {
    "retailer": "checkers",
    "store_code": "1103",
    "store_name": "Checkers Meadowridge",
    "latitude": -34.039644,
    "longitude": 18.456449,
    "province": "Western Cape",
    "city": "Cape Town",
    "address": "Park 'n Shop Centre Cnr Firgrove and Howard Drive"
  },
  {
    "retailer": "checkers",
    "store_code": "1179",
    "store_name": "Checkers Davenport Rd",
    "latitude": -29.86055278000001,
    "longitude": 31.00087500000003,
    "province": "KwaZulu-Natal",
    "city": "Durban",
    "address": "89 Davenport Road"
  },
  {
    "retailer": "checkers",
    "store_code": "123",
    "store_name": "Checkers Durbanville",
    "latitude": -33.830825,
    "longitude": 18.64763889,
    "province": "Western Cape",
    "city": "Cape Town",
    "address": "Midville Centre 13 Wellington Road"
  },
  {
    "retailer": "checkers",
    "store_code": "1276",
    "store_name": "Checkers Bluff",
    "latitude": -29.92311677102628,
    "longitude": 31.00304449604999,
    "province": "KwaZulu-Natal",
    "city": "Durban",
    "address": "Bluff Towers 318 Tara Road"
  },
  {
    "retailer": "checkers",
    "store_code": "1373",
    "store_name": "Checkers Kloof Street",
    "latitude": -33.93192778,
    "longitude": 18.40945277999999,
    "province": "Western Cape",
    "city": "Cape Town",
    "address": "Cnr Kloof and Weltevreden Street"
  },
  {
    "retailer": "checkers",
    "store_code": "1381",
    "store_name": "Checkers Nahoon",
    "latitude": -32.9861,
    "longitude": 27.9197,
    "province": "Eastern Cape",
    "city": "East London",
    "address": "Old Transkei Road"
  },
  {
    "retailer": "checkers",
    "store_code": "1399",
    "store_name": "Checkers Plumstead",
    "latitude": -34.022425,
    "longitude": 18.46876944,
    "province": "Western Cape",
    "city": "Cape Town",
    "address": "Cnr of Main Rd And Cecil Rd Plustead"
  },
  {
    "retailer": "checkers",
    "store_code": "15621",
    "store_name": "Checkers FX Paardevlei",
    "latitude": -34.09605,
    "longitude": 18.8155,
    "province": "Western Cape",
    "city": "Somerset West",
    "address": "Shop G01 Paardevlei Sentrum Cnr W.r. Quinan Boulevard And Gardner Williams Avenue"
  },
  {
    "retailer": "checkers",
    "store_code": "15639",
    "store_name": "Checkers Fx De Zwartland Werf",
    "latitude": -33.439944,
    "longitude": 18.720694,
    "province": "Western Cape",
    "city": "Malmesbury",
    "address": "Shop 01, De Zwartland Werf Piketberg Street"
  },
  {
    "retailer": "checkers",
    "store_code": "1569",
    "store_name": "Checkers Somerset West",
    "latitude": -34.08646389,
    "longitude": 18.85469444,
    "province": "Western Cape",
    "city": "Somerset West",
    "address": "Cnr Main and Gordan Str"
  },
  {
    "retailer": "checkers",
    "store_code": "15817",
    "store_name": "Checkers Northdene",
    "latitude": -29.86395234,
    "longitude": 30.88559394,
    "province": "KwaZulu-Natal",
    "city": "Queensburgh",
    "address": "666 Main Road Northdene"
  },
  {
    "retailer": "checkers",
    "store_code": "160563",
    "store_name": "Checkers FX Sandhurst",
    "latitude": -26.11431,
    "longitude": 28.05121,
    "province": "Gauteng",
    "city": "Sandton",
    "address": "70 Rivonia Road Sandhurst"
  },
  {
    "retailer": "checkers",
    "store_code": "1608",
    "store_name": "Checkers Scottsville",
    "latitude": -29.615586,
    "longitude": 30.394161,
    "province": "KwaZulu-Natal",
    "city": "Pietermaritzburg",
    "address": "The Mall @ Scottsville 50 Alan Paton Avenue"
  },
  {
    "retailer": "checkers",
    "store_code": "160830",
    "store_name": "Checkers Fx Somerset Mall ",
    "latitude": -34.08282,
    "longitude": 18.8234,
    "province": "Western Cape",
    "city": "Somerset West",
    "address": "Somerset Mall Shopping Centre Intersection Of N2 And R44, Centenary Drive,"
  },
  {
    "retailer": "checkers",
    "store_code": "160929",
    "store_name": "Checkers Little Me Old Paarl Road",
    "latitude": -33.876104,
    "longitude": 18.686733,
    "province": "Western Cape",
    "city": "Brackenfell",
    "address": "Shop 2 Brackenfell Value Centre, Old Paarl Road"
  },
  {
    "retailer": "checkers",
    "store_code": "160987",
    "store_name": "Checkers FX Arbour Arch",
    "latitude": -29.58994,
    "longitude": 30.36182,
    "province": "KwaZulu-Natal",
    "city": "Pietermaritzburg",
    "address": "Arbour Arch Centre George MacFarlane Lane"
  },
  {
    "retailer": "checkers",
    "store_code": "161014",
    "store_name": "Checkers FX Bayside Mall (WC)",
    "latitude": -33.8229,
    "longitude": 18.48904,
    "province": "Western Cape",
    "city": "Cape Town",
    "address": "Bayside Mall 33 Blauwberg Road"
  },
  {
    "retailer": "checkers",
    "store_code": "161030",
    "store_name": "Checkers FX New Market Lifestyle Centre",
    "latitude": -26.27638,
    "longitude": 28.1291,
    "province": "Gauteng",
    "city": "Alberton",
    "address": "New Market Lifestyle Centre Corner of Ring Rd East and Heidelberg Road"
  },
  {
    "retailer": "checkers",
    "store_code": "161080",
    "store_name": "Checkers FX East Rand Mall",
    "latitude": -26.182405,
    "longitude": 28.242191,
    "province": "Gauteng",
    "city": "Boksburg",
    "address": "East Rand Mall Bentel Ave"
  },
  {
    "retailer": "checkers",
    "store_code": "1616",
    "store_name": "Checkers Empangeni",
    "latitude": -28.7415145,
    "longitude": 31.890364810000015,
    "province": "KwaZulu-Natal",
    "city": "Empangeni",
    "address": "Cnr Maxwell Street and Hancock Ave"
  },
  {
    "retailer": "checkers",
    "store_code": "161878",
    "store_name": "Checkers Foods Riverview",
    "latitude": -26.116264,
    "longitude": 27.903221,
    "province": "Gauteng",
    "city": "Roodepoort",
    "address": "Riverview Shopping Centre Corner Of Krugerrand And Florin Roads"
  },
  {
    "retailer": "checkers",
    "store_code": "162361",
    "store_name": "Checkers Foods Cowey Park",
    "latitude": -29.8404,
    "longitude": 31.0089,
    "province": "KwaZulu-Natal",
    "city": "Durban",
    "address": "92-123 Problem Mkhize Road Morningside"
  },
  {
    "retailer": "checkers",
    "store_code": "162379",
    "store_name": "Checkers FX Port Shepstone",
    "latitude": -30.7408,
    "longitude": 30.4547,
    "province": "KwaZulu-Natal",
    "city": "Port Shepstone",
    "address": "Hibiscus Lifestyle Centre 13 Bisset Street"
  },
  {
    "retailer": "checkers",
    "store_code": "162387",
    "store_name": "Checkers Musgrave Centre",
    "latitude": -29.849009,
    "longitude": 30.999406,
    "province": "KwaZulu-Natal",
    "city": "Durban",
    "address": "115 Musgrave Road Berea"
  },
  {
    "retailer": "checkers",
    "store_code": "162913",
    "store_name": "Checkers FX Mahikeng Mall",
    "latitude": -25.85805,
    "longitude": 25.63879,
    "province": "North West",
    "city": "Mafikeng",
    "address": "Corner Of Carrington Street and Carney Street"
  },
  {
    "retailer": "checkers",
    "store_code": "16318",
    "store_name": "Checkers FX Ocean Dunes (Sibaya)",
    "latitude": -29.6829,
    "longitude": 31.1069,
    "province": "KwaZulu-Natal",
    "city": "Umhlanga Rocks",
    "address": "2 Helezer Boulevard Hillhead"
  },
  {
    "retailer": "checkers",
    "store_code": "163529",
    "store_name": "Checkers FX Clearview Square",
    "latitude": -25.680628,
    "longitude": 27.234465,
    "province": "North West",
    "city": "Rustenburg",
    "address": "Clearview Square 166 Kock Street"
  },
  {
    "retailer": "checkers",
    "store_code": "164101",
    "store_name": "Checkers Hyper FX Paarl Junction",
    "latitude": -33.78268,
    "longitude": 18.94934,
    "province": "Western Cape",
    "city": "Paarl",
    "address": "Shop G01 Winelands Square Shopping Centre Paarl Junction"
  },
  {
    "retailer": "checkers",
    "store_code": "164119",
    "store_name": "Checkers FX Lambton",
    "latitude": -26.2469,
    "longitude": 28.1785,
    "province": "Gauteng",
    "city": "Germiston",
    "address": "Lambton Court Shopping Centre Corner of Webber Road and Beacon Road"
  },
  {
    "retailer": "checkers",
    "store_code": "164339",
    "store_name": "Checkers Foods Beach Road Strand",
    "latitude": -34.11749,
    "longitude": 18.82795,
    "province": "Western Cape",
    "city": "Strand",
    "address": "Shop 1 Koopsentrum 86 Beach Road"
  },
  {
    "retailer": "checkers",
    "store_code": "164347",
    "store_name": "Checkers The Mutual CBD",
    "latitude": -33.92121,
    "longitude": 18.42307,
    "province": "Western Cape",
    "city": "Cape Town",
    "address": "Shop G1 The Mutual 17 St Georges Mall"
  },
  {
    "retailer": "checkers",
    "store_code": "164402",
    "store_name": "Checkers FX Riverlands",
    "latitude": -33.93429210699404,
    "longitude": 18.47544317329407,
    "province": "Western Cape",
    "city": "Cape Town",
    "address": "Cnr Of Berkley Rd And Liesbeek Parkway Observatory"
  },
  {
    "retailer": "checkers",
    "store_code": "164410",
    "store_name": "Checkers FX Zevenwacht Mall",
    "latitude": -33.94776,
    "longitude": 18.6952,
    "province": "Western Cape",
    "city": "Kuils River",
    "address": "Shop 26 Zevenwacht Mall Van Riebeeck Road"
  },
  {
    "retailer": "checkers",
    "store_code": "165034",
    "store_name": "Checkers Universitas",
    "latitude": -29.120576,
    "longitude": 26.174844,
    "province": "Free State",
    "city": "Bloemfontein",
    "address": "173 President Paul Kruger Ave"
  },
  {
    "retailer": "checkers",
    "store_code": "165068",
    "store_name": "Checkers Glen Balad",
    "latitude": -26.08555,
    "longitude": 28.25259,
    "province": "Gauteng",
    "city": "Kempton Park",
    "address": "Glen Balad Mall Cnr Fried & Weinberg St"
  },
  {
    "retailer": "checkers",
    "store_code": "165084",
    "store_name": "Checkers VR Mall",
    "latitude": -26.14549916,
    "longitude": 28.15571666,
    "province": "Gauteng",
    "city": "Edenvale",
    "address": "VR Mall 39 Van Riebeeck Ave"
  },
  {
    "retailer": "checkers",
    "store_code": "165092",
    "store_name": "Checkers Eden Terrace",
    "latitude": -26.124993,
    "longitude": 28.166183,
    "province": "Gauteng",
    "city": "Edenvale",
    "address": "60 Terrace Road,"
  },
  {
    "retailer": "checkers",
    "store_code": "165123",
    "store_name": "Checkers Elgin",
    "latitude": -26.067609,
    "longitude": 28.230771,
    "province": "Gauteng",
    "city": "Kempton Park",
    "address": "Elgin Mall Corner of Elgin Road and Olienhout Street"
  },
  {
    "retailer": "checkers",
    "store_code": "165131",
    "store_name": "Checkers Kempton Gate",
    "latitude": -26.09336,
    "longitude": 28.19712,
    "province": "Gauteng",
    "city": "Kempton Park",
    "address": "Kempton Gate Mall Corner of C R Swart Drive and Rienert Avenue"
  },
  {
    "retailer": "checkers",
    "store_code": "165220",
    "store_name": "Checkers FX Bedford Crossing",
    "latitude": -26.165298,
    "longitude": 28.142678,
    "province": "Gauteng",
    "city": "Johannesburg",
    "address": "Bedford Crossing 85 Boeing Rd E"
  },
  {
    "retailer": "checkers",
    "store_code": "16554",
    "store_name": "Checkers Mountain View",
    "latitude": -25.69183325975979,
    "longitude": 27.25718009952148,
    "province": "North West",
    "city": "Rustenburg",
    "address": "Mountain View Square Corner of Line Road and Wall Street"
  },
  {
    "retailer": "checkers",
    "store_code": "165759",
    "store_name": "Checkers FX Lavender Square",
    "latitude": -25.681953,
    "longitude": 28.193056,
    "province": "Gauteng",
    "city": "Pretoria",
    "address": "Lavender Square Shopping Centre Annlin West"
  },
  {
    "retailer": "checkers",
    "store_code": "165767",
    "store_name": "Checkers Soutpansberg",
    "latitude": -26.08157,
    "longitude": 28.22035,
    "province": "Gauteng",
    "city": "Kempton Park",
    "address": "Soutpansberg Drive"
  },
  {
    "retailer": "checkers",
    "store_code": "165979",
    "store_name": "Checkers FX Robberg Bay",
    "latitude": -34.08534,
    "longitude": 23.3629,
    "province": "Western Cape",
    "city": "Plettenberg Bay",
    "address": "Shop 9 Robberg Bay Shopping Centre Corner of Longships Drive and White Caps Way"
  },
  {
    "retailer": "checkers",
    "store_code": "165995",
    "store_name": "Checkers Foods Milkwood Square",
    "latitude": -34.03451,
    "longitude": 23.04339,
    "province": "Western Cape",
    "city": "Knysna",
    "address": "Shop No.1, Milkwood Square 55 Main Road"
  },
  {
    "retailer": "checkers",
    "store_code": "166161",
    "store_name": "Checkers FX Matumi Mall",
    "latitude": -25.473564,
    "longitude": 30.993561,
    "province": "Mpumalanga",
    "city": "Nelspruit",
    "address": "Cnr Du Preez Street & Midnight Street"
  },
  {
    "retailer": "checkers",
    "store_code": "166187",
    "store_name": "Checkers FX Meyerton Mall",
    "latitude": -26.580756,
    "longitude": 28.016497,
    "province": "Gauteng",
    "city": "Meyerton",
    "address": "Riverstone Mall Cnr Pierneef Blvd and Jim Fouche Rd"
  },
  {
    "retailer": "checkers",
    "store_code": "1666",
    "store_name": "Checkers Sasolburg",
    "latitude": -26.803614779533287,
    "longitude": 27.81504138870179,
    "province": "Free State",
    "city": "Sasolburg",
    "address": "Cnr Gf Malan and JG Strydom Str Gr.fontein Cntre"
  },
  {
    "retailer": "checkers",
    "store_code": "166933",
    "store_name": "Checkers FX Vergelegen",
    "latitude": -34.10144648,
    "longitude": 18.87179733,
    "province": "Western Cape",
    "city": "Somerset West",
    "address": "Shop 1 Vergelegen Plein Shopping Centre Cnr Sir Lowry's Pass & Bizweni Rd"
  },
  {
    "retailer": "checkers",
    "store_code": "16740",
    "store_name": "Checkers Estcourt",
    "latitude": -29.0114,
    "longitude": 29.86305,
    "province": "KwaZulu-Natal",
    "city": "Estcourt",
    "address": "1 Brickhill Road"
  },
  {
    "retailer": "checkers",
    "store_code": "167654",
    "store_name": "Checkers FX Montana Crossing",
    "latitude": -25.677367,
    "longitude": 28.240283,
    "province": "Gauteng",
    "city": "Pretoria",
    "address": "Montana Crossing Centre Cnr Dr Swanepoel & Sefako Makgatho Dr"
  },
  {
    "retailer": "checkers",
    "store_code": "167696",
    "store_name": "Checkers Hyper FX The Precinct",
    "latitude": -26.00454,
    "longitude": 28.08617,
    "province": "Gauteng",
    "city": "Midrand",
    "address": "Shop 15 Mushroom Farm Shopping Centre Corner Allandale Rd & M9"
  },
  {
    "retailer": "checkers",
    "store_code": "167701",
    "store_name": "Checkers FX The Square",
    "latitude": -25.473841,
    "longitude": 30.970628,
    "province": "Mpumalanga",
    "city": "Mbombela",
    "address": "The Square 13 Sitrus Crescent"
  },
  {
    "retailer": "checkers",
    "store_code": "168066",
    "store_name": "Checkers FX Silverwater Crossing",
    "latitude": -25.735471,
    "longitude": 28.311487,
    "province": "Gauteng",
    "city": "Pretoria",
    "address": "Silverwater Crossing Cnr Watermeyer Str & Pretoria Rd"
  },
  {
    "retailer": "checkers",
    "store_code": "168228",
    "store_name": "Checkers FX Hyde Park Corner",
    "latitude": -26.125231,
    "longitude": 28.033225,
    "province": "Gauteng",
    "city": "Johannesburg",
    "address": "Hyde Park Corner Cnr Jan Smuts Ave & Winnie Mandela Dr"
  },
  {
    "retailer": "checkers",
    "store_code": "168406",
    "store_name": "Checkers FX Fitzsimons Square",
    "latitude": -26.723799,
    "longitude": 27.856229,
    "province": "Gauteng",
    "city": "Vanderbijlpark",
    "address": "Fitzsimons Square 37 Fitzsimons Street"
  },
  {
    "retailer": "checkers",
    "store_code": "168545",
    "store_name": "Checkers FX Westwood Mall",
    "latitude": -29.8282,
    "longitude": 30.9578,
    "province": "KwaZulu-Natal",
    "city": "Durban",
    "address": "Saxony Westwood Mall 16 Lincoln Terrace"
  },
  {
    "retailer": "checkers",
    "store_code": "16855",
    "store_name": "Checkers FX 90 On Rivonia",
    "latitude": -26.071534,
    "longitude": 28.064857,
    "province": "Gauteng",
    "city": "Johannesburg",
    "address": "Pinnacle Walk Shopping Centre 240 Rivonia Rd"
  },
  {
    "retailer": "checkers",
    "store_code": "168553",
    "store_name": "Checkers Fx Lenz Quarter",
    "latitude": -26.311868,
    "longitude": 27.846853,
    "province": "Gauteng",
    "city": "Lenasia",
    "address": "Lenz Quarter Cnr Nirvana Dr and Dimple St"
  },
  {
    "retailer": "checkers",
    "store_code": "169868",
    "store_name": "Checkers FX Omni Square",
    "latitude": -26.27909,
    "longitude": 28.064768,
    "province": "Gauteng",
    "city": "Johannesburg",
    "address": "Omni Square Cnr Soetdoring And Alwyn Ave"
  },
  {
    "retailer": "checkers",
    "store_code": "17021",
    "store_name": "Checkers FX The Greenery",
    "latitude": -23.907678,
    "longitude": 29.470405,
    "province": "Limpopo",
    "city": "Polokwane",
    "address": "Corner Of Oost St And Thabo Mbeki St"
  },
  {
    "retailer": "checkers",
    "store_code": "17039",
    "store_name": "Checkers FX Wilkoppies",
    "latitude": -26.83521,
    "longitude": 26.680666,
    "province": "North West",
    "city": "Klerksdorp",
    "address": "Cnr Of Austin And Buffelsdoorn Road"
  },
  {
    "retailer": "checkers",
    "store_code": "1713",
    "store_name": "Checkers Monument Park",
    "latitude": -26.10072778000001,
    "longitude": 27.797305560000037,
    "province": "Gauteng",
    "city": "Krugersdorp",
    "address": "Anthos Shopping Centre 244 Voortrekker Street"
  },
  {
    "retailer": "checkers",
    "store_code": "1721",
    "store_name": "Checkers Hyper Klipfontein",
    "latitude": -25.89872500000001,
    "longitude": 29.23440833,
    "province": "Mpumalanga",
    "city": "Witbank",
    "address": "Highveld Centre Cnr Watermeyer & Stevenson Streets"
  },
  {
    "retailer": "checkers",
    "store_code": "1810",
    "store_name": "Checkers 6th Avenue",
    "latitude": -33.98,
    "longitude": 25.597,
    "province": "Eastern Cape",
    "city": "Gqeberha",
    "address": "Sixth Avenue Centre 6th Avenue"
  },
  {
    "retailer": "checkers",
    "store_code": "1844",
    "store_name": "Checkers Sea Point",
    "latitude": -33.92055,
    "longitude": 18.38355278000002,
    "province": "Western Cape",
    "city": "Cape Town",
    "address": "Cnr Regent and St Andrews Rds"
  },
  {
    "retailer": "checkers",
    "store_code": "1852",
    "store_name": "Checkers Brooklyn",
    "latitude": -25.773190223080007,
    "longitude": 28.234063954204007,
    "province": "Gauteng",
    "city": "Pretoria",
    "address": "Brooklyn Mall cnr Fehrsen & Middel street"
  },
  {
    "retailer": "checkers",
    "store_code": "1878",
    "store_name": "Checkers Overport",
    "latitude": -29.83728056000002,
    "longitude": 30.99985833,
    "province": "KwaZulu-Natal",
    "city": "Durban",
    "address": "The Atrium Juniper Road"
  },
  {
    "retailer": "checkers",
    "store_code": "1886",
    "store_name": "Checkers Windermere",
    "latitude": -29.832,
    "longitude": 31.02,
    "province": "KwaZulu-Natal",
    "city": "Durban",
    "address": "Shop 24 Windermere Centre 177 Lilian Ngoyi Rd"
  },
  {
    "retailer": "checkers",
    "store_code": "1925",
    "store_name": "Checkers Hyper Arcon Park",
    "latitude": -26.63909098284499,
    "longitude": 27.93921451877289,
    "province": "Gauteng",
    "city": "Vereeniging",
    "address": "Cnr Arum Street & Ring Road"
  },
  {
    "retailer": "checkers",
    "store_code": "1941",
    "store_name": "Checkers Bryanston",
    "latitude": -26.07515277999999,
    "longitude": 28.02776667,
    "province": "Gauteng",
    "city": "Bryanston",
    "address": "17-21 Ballyclare Drive"
  },
  {
    "retailer": "checkers",
    "store_code": "199",
    "store_name": "Checkers Sea Point Towers",
    "latitude": -33.91655430000001,
    "longitude": 18.389424929999983,
    "province": "Western Cape",
    "city": "Cape Town",
    "address": "365 Main Road"
  },
  {
    "retailer": "checkers",
    "store_code": "2175",
    "store_name": "Checkers Westville",
    "latitude": -29.83668333,
    "longitude": 30.91855555999999,
    "province": "KwaZulu-Natal",
    "city": "Durban",
    "address": "Westville Mall Cnr Buckingham Terrace And Menston Road"
  },
  {
    "retailer": "checkers",
    "store_code": "2183",
    "store_name": "Checkers Eikestad Mall",
    "latitude": -33.93621931793411,
    "longitude": 18.86035346935692,
    "province": "Western Cape",
    "city": "Stellenbosch",
    "address": "Eikestad Mall 43 Andringa Street"
  },
  {
    "retailer": "checkers",
    "store_code": "2206",
    "store_name": "Checkers Hyper Vanderbijlpark",
    "latitude": -26.701263890000007,
    "longitude": 27.83834721999999,
    "province": "Gauteng",
    "city": "Vanderbijlpark",
    "address": "Cnr Jan Van Riebeeck Boulevard & Hans Strijdom Street"
  },
  {
    "retailer": "checkers",
    "store_code": "2214",
    "store_name": "Checkers Polokwane",
    "latitude": -23.909448903399014,
    "longitude": 29.455112077828215,
    "province": "Limpopo",
    "city": "Polokwane",
    "address": "Grobler & Hans van Rensburg str Pietersburg"
  },
  {
    "retailer": "checkers",
    "store_code": "2303",
    "store_name": "Checkers Hyper Klerksdorp",
    "latitude": -26.8754277,
    "longitude": 26.6657206,
    "province": "North West",
    "city": "Klerksdorp",
    "address": "Checkers Hyper Centre Corner of Church Street & Margaretha Prinsloo Street"
  },
  {
    "retailer": "checkers",
    "store_code": "2311",
    "store_name": "Checkers Virginia",
    "latitude": -28.10860140467229,
    "longitude": 26.8653740263916,
    "province": "Free State",
    "city": "Virginia",
    "address": "Cnr Market and State Str"
  },
  {
    "retailer": "checkers",
    "store_code": "2492",
    "store_name": "Checkers Brackenhurst",
    "latitude": -26.3099,
    "longitude": 28.1077,
    "province": "Gauteng",
    "city": "Alberton",
    "address": "Brackenhurst Square Abel Moller Rd and Vermooten St"
  },
  {
    "retailer": "checkers",
    "store_code": "2507",
    "store_name": "Checkers Metlife Mall",
    "latitude": -32.87492070351189,
    "longitude": 27.386427947493,
    "province": "Eastern Cape",
    "city": "King William's Town",
    "address": "Metlife Mall Cnr Smith and Cross Streets"
  },
  {
    "retailer": "checkers",
    "store_code": "2515",
    "store_name": "Checkers Glenvista",
    "latitude": -26.2866734850341,
    "longitude": 28.052863252144288,
    "province": "Gauteng",
    "city": "Johannesburg",
    "address": "The Glenvista Shopping Centre Cnr Biggarsberg Rd and Kirby Beller Rd"
  },
  {
    "retailer": "checkers",
    "store_code": "2662",
    "store_name": "Checkers Cascades",
    "latitude": -29.57209,
    "longitude": 30.35646,
    "province": "KwaZulu-Natal",
    "city": "Pietermaritzburg",
    "address": "Cascades Centre Town Bush Valley Rd"
  },
  {
    "retailer": "checkers",
    "store_code": "2701",
    "store_name": "Checkers Hyper Brackenfell",
    "latitude": -33.88419443999998,
    "longitude": 18.68233333000001,
    "province": "Western Cape",
    "city": "Brackenfell",
    "address": "Fairbridge Mall Cnr Old Paarl Road"
  },
  {
    "retailer": "checkers",
    "store_code": "30033",
    "store_name": "Checkers Kimberley Game Centre",
    "latitude": -28.74537778000001,
    "longitude": 24.76254721999998,
    "province": "Northern Cape",
    "city": "Kimberley",
    "address": "New Park Shopping Centre Cnr Bultfontein and Long Road"
  },
  {
    "retailer": "checkers",
    "store_code": "301",
    "store_name": "Checkers Hyper Montana",
    "latitude": -25.68129444,
    "longitude": 28.25256110999998,
    "province": "Gauteng",
    "city": "Pretoria",
    "address": "Shop 1, Kolonade Mall Cnr Sefako Makgatho Drive & Enkeldoorn Avenue"
  },
  {
    "retailer": "checkers",
    "store_code": "30148",
    "store_name": "Checkers Vincent",
    "latitude": -32.98144722000001,
    "longitude": 27.900183329999997,
    "province": "Eastern Cape",
    "city": "East London",
    "address": "20 Balfour Road"
  },
  {
    "retailer": "checkers",
    "store_code": "30326",
    "store_name": "Checkers Hyper Mall Of Carnival",
    "latitude": -26.252611762586607,
    "longitude": 28.31934341930111,
    "province": "Gauteng",
    "city": "Brakpan",
    "address": "Shop 171, Mall at Carnival Corner of Heidelberg Road and Airport Road"
  },
  {
    "retailer": "checkers",
    "store_code": "30334",
    "store_name": "Checkers Ben Fleur",
    "latitude": -25.899593,
    "longitude": 29.268216,
    "province": "Mpumalanga",
    "city": "Witbank",
    "address": "Cnr Da Vinci and Paul Sauer Str Ben Fleur Ext 13"
  },
  {
    "retailer": "checkers",
    "store_code": "30342",
    "store_name": "Checkers Middelburg Mall",
    "latitude": -25.80654770565451,
    "longitude": 29.4550628592845,
    "province": "Mpumalanga",
    "city": "Middelburg",
    "address": "Store 8 & 9, Middelburg Mall Cnr Dolerite Crescent & Sondagsrivier Street"
  },
  {
    "retailer": "checkers",
    "store_code": "30350",
    "store_name": "Checkers Parkview",
    "latitude": -25.81664,
    "longitude": 28.30344,
    "province": "Gauteng",
    "city": "Pretoria",
    "address": "Cnr Garsfontein and Netcare Rd Moreleta Park Ext 80"
  },
  {
    "retailer": "checkers",
    "store_code": "30481",
    "store_name": "Checkers Castle Rock - Nwcst",
    "latitude": -27.77781170363698,
    "longitude": 29.942674228515088,
    "province": "KwaZulu-Natal",
    "city": "Newcastle",
    "address": "Newcastle Mall Cnr Allen And Oak Street"
  },
  {
    "retailer": "checkers",
    "store_code": "30732",
    "store_name": "Checkers Hyper Parklands (Sandown)",
    "latitude": -33.79903,
    "longitude": 18.50163,
    "province": "Western Cape",
    "city": "Milnerton",
    "address": "Sandown Crossing Cnr Sandown Road & Wood Drive"
  },
  {
    "retailer": "checkers",
    "store_code": "31398",
    "store_name": "Checkers Saints",
    "latitude": -27.9908886,
    "longitude": 26.713517739999975,
    "province": "Free State",
    "city": "Welkom",
    "address": "Cnr Anderson and Cowie Streets"
  },
  {
    "retailer": "checkers",
    "store_code": "31411",
    "store_name": "Checkers FX Mimosa Mall",
    "latitude": -29.1093819326206,
    "longitude": 26.2012166245729,
    "province": "Free State",
    "city": "Bloemfontein",
    "address": "Cnr Nelson Mandela and Gen Dan Pienaar Dr"
  },
  {
    "retailer": "checkers",
    "store_code": "31568",
    "store_name": "Checkers Tzaneen Lifestyle",
    "latitude": -23.82280448884081,
    "longitude": 30.15659415225639,
    "province": "Limpopo",
    "city": "Tzaneen",
    "address": "Cnr Danie Joubert Street & R71 Tzaneen"
  },
  {
    "retailer": "checkers",
    "store_code": "34184",
    "store_name": "Checkers Laguna Mall",
    "latitude": -33.04806,
    "longitude": 18.05043,
    "province": "Western Cape",
    "city": "Langebaan",
    "address": "Laguna Mall Laguna Street"
  },
  {
    "retailer": "checkers",
    "store_code": "343",
    "store_name": "Checkers Bothasig",
    "latitude": -33.86876111,
    "longitude": 18.53173889,
    "province": "Western Cape",
    "city": "Cape Town",
    "address": "Corner of Vryburger Avenue and Tafelberg Street"
  },
  {
    "retailer": "checkers",
    "store_code": "34702",
    "store_name": "Checkers Cornubia",
    "latitude": -29.708950000000023,
    "longitude": 31.05584443999998,
    "province": "KwaZulu-Natal",
    "city": "Durban",
    "address": "Cornubia Shopping Centre Cnr M41 & Dube East Road"
  },
  {
    "retailer": "checkers",
    "store_code": "34728",
    "store_name": "Checkers Woodburn",
    "latitude": -29.6123645951565,
    "longitude": 30.390800822362,
    "province": "KwaZulu-Natal",
    "city": "Pietermaritzburg",
    "address": "Intersection Of New England & Allan Paton Rds"
  },
  {
    "retailer": "checkers",
    "store_code": "34744",
    "store_name": "Checkers Ballito Junction",
    "latitude": -29.52293611,
    "longitude": 31.20247222,
    "province": "KwaZulu-Natal",
    "city": "Tongaat",
    "address": "Shop 204 Ballito Junction Regional Mall Ballito Drive"
  },
  {
    "retailer": "checkers",
    "store_code": "35164",
    "store_name": "Checkers Springbok",
    "latitude": -29.66384741553079,
    "longitude": 17.88686233222881,
    "province": "Northern Cape",
    "city": "Springbok",
    "address": "Cnr Of Voortekker & Uitspan Street Springbok"
  },
  {
    "retailer": "checkers",
    "store_code": "36110",
    "store_name": "Checkers Olympus Village",
    "latitude": -25.79938333000001,
    "longitude": 28.333755559999968,
    "province": "Gauteng",
    "city": "Pretoria",
    "address": "Olympus Village Shopping Centre Cnr Olympus Drive & Achilles Road"
  },
  {
    "retailer": "checkers",
    "store_code": "36128",
    "store_name": "Checkers Atterbury Value Mart",
    "latitude": -25.78969167,
    "longitude": 28.30816943999999,
    "province": "Gauteng",
    "city": "Pretoria",
    "address": "Cnr Atterbury Rd & Selikats Causeway"
  },
  {
    "retailer": "checkers",
    "store_code": "36136",
    "store_name": "Checkers Sunward Park",
    "latitude": -26.258955819674814,
    "longitude": 28.2704906611712,
    "province": "Gauteng",
    "city": "Boksburg",
    "address": "Cnr Kingfisher and Trichardt Rd"
  },
  {
    "retailer": "checkers",
    "store_code": "36144",
    "store_name": "Checkers Cradlestone",
    "latitude": -26.06057222,
    "longitude": 27.835369440000008,
    "province": "Gauteng",
    "city": "Krugersdorp",
    "address": "Cnr Hendrik Potgieter and Furrow Rd"
  },
  {
    "retailer": "checkers",
    "store_code": "36186",
    "store_name": "Checkers Nonesi Mall Queenstown",
    "latitude": -31.90283611000002,
    "longitude": 26.87439166999999,
    "province": "Eastern Cape",
    "city": "Queenstown",
    "address": "Nonesi Mall Corner of Komani Street and Bells Road"
  },
  {
    "retailer": "checkers",
    "store_code": "36306",
    "store_name": "Checkers Virginia Circle",
    "latitude": -29.772857,
    "longitude": 31.052679,
    "province": "KwaZulu-Natal",
    "city": "Durban",
    "address": "Virginia Shopping Centre Cnr Mackeurtan and Hinton Grove Avenue"
  },
  {
    "retailer": "checkers",
    "store_code": "36819",
    "store_name": "Checkers Kalahari Mall",
    "latitude": -28.44443826837932,
    "longitude": 21.256821182273775,
    "province": "Northern Cape",
    "city": "Upington",
    "address": "Kalahari Mall Cnr Van Riebeeck Street & Dr Nelson Mandela Drive"
  },
  {
    "retailer": "checkers",
    "store_code": "369",
    "store_name": "Checkers Muizenberg",
    "latitude": -34.1062,
    "longitude": 18.4687,
    "province": "Western Cape",
    "city": "Muizenberg",
    "address": "The Muize Shopping Centre Corner Main Road and Atlantic Road"
  },
  {
    "retailer": "checkers",
    "store_code": "37140",
    "store_name": "Checkers Hyper Brookside Mall",
    "latitude": -29.59154,
    "longitude": 30.39461,
    "province": "KwaZulu-Natal",
    "city": "Pietermaritzburg",
    "address": "Brookside Mall Cnr Gumtree & Willow Roads"
  },
  {
    "retailer": "checkers",
    "store_code": "37255",
    "store_name": "Checkers Langverwacht",
    "latitude": -33.935597220000005,
    "longitude": 18.69647778000002,
    "province": "Western Cape",
    "city": "Kuils River",
    "address": "Langverwacht Plein Corner of Langverwacht Road and Kloof Ave"
  },
  {
    "retailer": "checkers",
    "store_code": "37768",
    "store_name": "Checkers Hemingways Mall",
    "latitude": -32.97071114999999,
    "longitude": 27.90224605999999,
    "province": "Eastern Cape",
    "city": "East London",
    "address": "Cnr Western Avenue And Two Rivers Drive"
  },
  {
    "retailer": "checkers",
    "store_code": "38235",
    "store_name": "Checkers Hyper Secunda Mall",
    "latitude": -26.512669766315486,
    "longitude": 29.1822749417969,
    "province": "Mpumalanga",
    "city": "Secunda",
    "address": "Shop LG01 Secunda Mall Cnr PDP Kruger Street & Oliver Tambo Drive"
  },
  {
    "retailer": "checkers",
    "store_code": "38243",
    "store_name": "Checkers Rivonia Village",
    "latitude": -26.059236110000008,
    "longitude": 28.06149167000001,
    "province": "Gauteng",
    "city": "Johannesburg",
    "address": "Cnr Mutual and Wessel Street"
  },
  {
    "retailer": "checkers",
    "store_code": "38277",
    "store_name": "Checkers Springs Mall",
    "latitude": -26.27629,
    "longitude": 28.45608,
    "province": "Gauteng",
    "city": "Springs",
    "address": "Springs Mall 19 Jan Smuts Road"
  },
  {
    "retailer": "checkers",
    "store_code": "38714",
    "store_name": "Checkers Blubird Melrose",
    "latitude": -26.129291669999983,
    "longitude": 28.06636388999998,
    "province": "Gauteng",
    "city": "Johannesburg",
    "address": "Corner Of Fort Street Atholl-oaklands Rd And Park Rd"
  },
  {
    "retailer": "checkers",
    "store_code": "38722",
    "store_name": "Checkers Waterfall Corner",
    "latitude": -26.022719440000014,
    "longitude": 28.08900833000001,
    "province": "Gauteng",
    "city": "Midrand",
    "address": "Cnr Maxwell and Woodmead Drive Waterfall"
  },
  {
    "retailer": "checkers",
    "store_code": "39150",
    "store_name": "Checkers Vredendal",
    "latitude": -31.674125,
    "longitude": 18.508111110000023,
    "province": "Western Cape",
    "city": "Vredendal",
    "address": "Vredendal Mall R363"
  },
  {
    "retailer": "checkers",
    "store_code": "39168",
    "store_name": "Checkers Hyper Somerset West (Helderberg Mall)",
    "latitude": -34.08672,
    "longitude": 18.8292,
    "province": "Western Cape",
    "city": "Somerset West",
    "address": "Helderberg Centre Cnr De Beers Avenue & Forsyth Road"
  },
  {
    "retailer": "checkers",
    "store_code": "40206",
    "store_name": "Checkers Hyper Gateway",
    "latitude": -29.726008083896414,
    "longitude": 31.06574570139271,
    "province": "KwaZulu-Natal",
    "city": "Umhlanga Rocks",
    "address": "Shop L002, Gateway Theatre Of Shopping 1 Palm Boulevard"
  },
  {
    "retailer": "checkers",
    "store_code": "40989",
    "store_name": "Checkers Jean Avenue",
    "latitude": -25.84578056000001,
    "longitude": 28.19054167,
    "province": "Gauteng",
    "city": "Centurion",
    "address": "Checkers Jean Village Cnr Gerhard Jean Ave"
  },
  {
    "retailer": "checkers",
    "store_code": "41074",
    "store_name": "Checkers Jeffrey's Bay",
    "latitude": -34.034767,
    "longitude": 24.930036,
    "province": "Eastern Cape",
    "city": "Jeffreys Bay",
    "address": "124 Da Gama Street Jeffreys Bay"
  },
  {
    "retailer": "checkers",
    "store_code": "42541",
    "store_name": "Checkers Sunninghill",
    "latitude": -26.03252222,
    "longitude": 28.06177222000001,
    "province": "Gauteng",
    "city": "Johannesburg",
    "address": "Sunninghill Square Cnr Leeukop Str and Naivasha Road"
  },
  {
    "retailer": "checkers",
    "store_code": "42672",
    "store_name": "Checkers Newcastle",
    "latitude": -27.7424243530125,
    "longitude": 29.9340098802217,
    "province": "KwaZulu-Natal",
    "city": "Newcastle",
    "address": "Amajuba Mall 24 Victoria Street"
  },
  {
    "retailer": "checkers",
    "store_code": "42698",
    "store_name": "Checkers Shelley Beach",
    "latitude": -30.7961184665775,
    "longitude": 30.405648052103608,
    "province": "KwaZulu-Natal",
    "city": "Shelly Beach",
    "address": "Shop 35 South Coast Mall"
  },
  {
    "retailer": "checkers",
    "store_code": "42973",
    "store_name": "Checkers Cape Gate",
    "latitude": -33.85156667,
    "longitude": 18.69767777999999,
    "province": "Western Cape",
    "city": "Kraaifontein",
    "address": "Cape Gate Centre Okanvango Road"
  },
  {
    "retailer": "checkers",
    "store_code": "42981",
    "store_name": "Checkers Protea Heights",
    "latitude": -33.8893,
    "longitude": 18.6896,
    "province": "Western Cape",
    "city": "Brackenfell",
    "address": "Corner Of Brackenfell Boulevard And Protea Street"
  },
  {
    "retailer": "checkers",
    "store_code": "42999",
    "store_name": "Checkers Big Bay",
    "latitude": -33.78785833,
    "longitude": 18.457361109999997,
    "province": "Western Cape",
    "city": "Big Bay",
    "address": "Seaside Village Cnr Cormorant Rd And Otto Du Plessis Dr."
  },
  {
    "retailer": "checkers",
    "store_code": "43660",
    "store_name": "Checkers Langenhovenpark",
    "latitude": -29.09395351623879,
    "longitude": 26.1662136961875,
    "province": "Free State",
    "city": "Bloemfontein",
    "address": "2 Jan Spies Avenue"
  },
  {
    "retailer": "checkers",
    "store_code": "44739",
    "store_name": "Checkers Newton Park",
    "latitude": -33.94899167,
    "longitude": 25.55763056000002,
    "province": "Eastern Cape",
    "city": "Gqeberha",
    "address": "Big Ben Centre Cnr Hurd Street and 6th Avenue"
  },
  {
    "retailer": "checkers",
    "store_code": "44755",
    "store_name": "Checkers Paarl North",
    "latitude": -33.70903082515492,
    "longitude": 18.96167798893839,
    "province": "Western Cape",
    "city": "Paarl",
    "address": "Corner of Main Road and Bo Lang Straat"
  },
  {
    "retailer": "checkers",
    "store_code": "45028",
    "store_name": "Checkers FX Emfuleni",
    "latitude": -26.73490000000001,
    "longitude": 27.83838055999999,
    "province": "Gauteng",
    "city": "Vanderbijlpark",
    "address": "Riverside Cnr Frikkie Meyer And Chopin"
  },
  {
    "retailer": "checkers",
    "store_code": "45036",
    "store_name": "Checkers Riverside Mall",
    "latitude": -25.43785485395902,
    "longitude": 30.96911064718158,
    "province": "Mpumalanga",
    "city": "Nelspruit",
    "address": "Riverside Mall 215 White River Road"
  },
  {
    "retailer": "checkers",
    "store_code": "45044",
    "store_name": "Checkers Saveway",
    "latitude": -25.87378178977869,
    "longitude": 29.232722314792,
    "province": "Mpumalanga",
    "city": "Witbank",
    "address": "Saveways Crescent Centre Corner of Mandela Street and Or Tambo Road"
  },
  {
    "retailer": "checkers",
    "store_code": "45078",
    "store_name": "Checkers Mountain Mill",
    "latitude": -33.63179,
    "longitude": 19.43455,
    "province": "Western Cape",
    "city": "Worcester",
    "address": "Mountain Mill Centre 13 Mountain Mill Drive"
  },
  {
    "retailer": "checkers",
    "store_code": "45109",
    "store_name": "Checkers Cobble Walk",
    "latitude": -33.84367,
    "longitude": 18.67689,
    "province": "Western Cape",
    "city": "Cape Town",
    "address": "Cobble Walk Shopping Centre Cnr Verdi Boulevard and"
  },
  {
    "retailer": "checkers",
    "store_code": "46105",
    "store_name": "Checkers FX Preller Square",
    "latitude": -29.08825,
    "longitude": 26.21207,
    "province": "Free State",
    "city": "Bloemfontein",
    "address": "28 Graaf Reinet Street"
  },
  {
    "retailer": "checkers",
    "store_code": "46171",
    "store_name": "Checkers Diamond Pavillion",
    "latitude": -28.76566,
    "longitude": 24.76474,
    "province": "Northern Cape",
    "city": "Kimberley",
    "address": "Diamond Pavillion Centre 1 Oliver Road"
  },
  {
    "retailer": "checkers",
    "store_code": "46561",
    "store_name": "Checkers Eco Boulevard",
    "latitude": -25.87707239812991,
    "longitude": 28.174808409658215,
    "province": "Gauteng",
    "city": "Pretoria",
    "address": "Eco Boulevard Shopping Centre Witchhazel Ave"
  },
  {
    "retailer": "checkers",
    "store_code": "48238",
    "store_name": "Checkers Hyper Shallcross",
    "latitude": -29.8996217845496,
    "longitude": 30.8797344009328,
    "province": "KwaZulu-Natal",
    "city": "Queensburgh",
    "address": "Shop 22, The Ridge 90 Shallcross Road"
  },
  {
    "retailer": "checkers",
    "store_code": "48296",
    "store_name": "Checkers Columbine Square",
    "latitude": -26.27251,
    "longitude": 28.028863,
    "province": "Gauteng",
    "city": "Johannesburg",
    "address": "Columbine Square Centre Cnr Swartgoud and Columbine Street"
  },
  {
    "retailer": "checkers",
    "store_code": "48385",
    "store_name": "Checkers Willowbridge",
    "latitude": -33.86765556000001,
    "longitude": 18.63085278,
    "province": "Western Cape",
    "city": "Bellville",
    "address": "Willowbridge Village Corner Of Old Oak Road and Carl Cronje Drive"
  },
  {
    "retailer": "checkers",
    "store_code": "48979",
    "store_name": "Checkers Knysna",
    "latitude": -34.03700556,
    "longitude": 23.047183330000006,
    "province": "Western Cape",
    "city": "Knysna",
    "address": "Knysna Village Square Rawson Street"
  },
  {
    "retailer": "checkers",
    "store_code": "490",
    "store_name": "Checkers Queenswood",
    "latitude": -25.731526663108408,
    "longitude": 28.246884217156808,
    "province": "Gauteng",
    "city": "Pretoria",
    "address": "Queenswood Galaries Cnr Whittle Lane And Stead Ave"
  },
  {
    "retailer": "checkers",
    "store_code": "49137",
    "store_name": "Checkers Ermelo",
    "latitude": -26.51680555999999,
    "longitude": 29.98260556,
    "province": "Mpumalanga",
    "city": "Ermelo",
    "address": "The Oak Centre Shop 1"
  },
  {
    "retailer": "checkers",
    "store_code": "50518",
    "store_name": "Checkers Potchefstroom",
    "latitude": -26.71192,
    "longitude": 27.10673,
    "province": "North West",
    "city": "Potchefstroom",
    "address": "Mooirivier Mall Nelson Mandela Drive"
  },
  {
    "retailer": "checkers",
    "store_code": "50534",
    "store_name": "Checkers Hyper Rustenburg",
    "latitude": -25.7040556684661,
    "longitude": 27.2498242040529,
    "province": "North West",
    "city": "Rustenburg",
    "address": "Shop 1, Platinum Square 74 Gareth Roberts Avenue"
  },
  {
    "retailer": "checkers",
    "store_code": "50801",
    "store_name": "Checkers Boardwalk Richards Bay",
    "latitude": -28.755490340181687,
    "longitude": 32.04847634507691,
    "province": "KwaZulu-Natal",
    "city": "Richards Bay",
    "address": "Shop No 5 Board Walk Inkwazi"
  },
  {
    "retailer": "checkers",
    "store_code": "50908",
    "store_name": "Checkers Moffett-on-main",
    "latitude": -33.9837202519842,
    "longitude": 25.554386174780415,
    "province": "Eastern Cape",
    "city": "Gqeberha",
    "address": "Moffett-On-Main Lifestyle Centre 109 17th Avenue"
  },
  {
    "retailer": "checkers",
    "store_code": "5204",
    "store_name": "Checkers Century City",
    "latitude": -33.89459097458251,
    "longitude": 18.50921321526412,
    "province": "Western Cape",
    "city": "Milnerton",
    "address": "Shop 11 Canal Walk Centre"
  },
  {
    "retailer": "checkers",
    "store_code": "52073",
    "store_name": "Checkers Jeffrey's Bay Mall",
    "latitude": -34.0447584303638,
    "longitude": 24.917161812079176,
    "province": "Eastern Cape",
    "city": "Jeffreys Bay",
    "address": "Checkers J-Bay Mall 59 Francis Street"
  },
  {
    "retailer": "checkers",
    "store_code": "521",
    "store_name": "Checkers Moreleta Park",
    "latitude": -25.80940666452499,
    "longitude": 28.2999757936559,
    "province": "Gauteng",
    "city": "Pretoria",
    "address": "Moreleta Plaza Cnr Garsfontein Road & Rubenstein Drive"
  },
  {
    "retailer": "checkers",
    "store_code": "52201",
    "store_name": "Checkers Hartbeespoort",
    "latitude": -25.7304,
    "longitude": 27.88614,
    "province": "North West",
    "city": "Hartbeespoort",
    "address": "Village Mall Magalise Boulevard"
  },
  {
    "retailer": "checkers",
    "store_code": "52316",
    "store_name": "Checkers Selcourt",
    "latitude": -26.29342,
    "longitude": 28.45398,
    "province": "Gauteng",
    "city": "Springs",
    "address": "Cnr Wit, Hewitt & Ramona Road"
  },
  {
    "retailer": "checkers",
    "store_code": "52358",
    "store_name": "Checkers West Coast Mall",
    "latitude": -32.9213,
    "longitude": 17.9864,
    "province": "Western Cape",
    "city": "Vredenburg",
    "address": "Shop U36 West Coast Mall 110 Saldanha Road"
  },
  {
    "retailer": "checkers",
    "store_code": "54570",
    "store_name": "Checkers Grey Owl Midstream",
    "latitude": -25.9072035589442,
    "longitude": 28.1631308968311,
    "province": "Gauteng",
    "city": "Centurion",
    "address": "1869 Brakfontein Rd. Louwlardia Ext. 10"
  },
  {
    "retailer": "checkers",
    "store_code": "54596",
    "store_name": "Checkers Horizon",
    "latitude": -26.143713890000015,
    "longitude": 27.86806943999999,
    "province": "Gauteng",
    "city": "Roodepoort",
    "address": "1 Sonop Street"
  },
  {
    "retailer": "checkers",
    "store_code": "54677",
    "store_name": "Checkers Hyper Galleria",
    "latitude": -30.03314167,
    "longitude": 30.90056943999999,
    "province": "KwaZulu-Natal",
    "city": "Amanzimtoti",
    "address": "Galleria Mall Cnr Moss Kolnik Drive & Arbour Road"
  },
  {
    "retailer": "checkers",
    "store_code": "54952",
    "store_name": "Checkers Van Der Lingen",
    "latitude": -33.7332,
    "longitude": 18.9627,
    "province": "Western Cape",
    "city": "Paarl",
    "address": "Cnr Main and Van Der Lingen Street"
  },
  {
    "retailer": "checkers",
    "store_code": "55021",
    "store_name": "Checkers Flamwood Klerksdorp",
    "latitude": -26.85582222,
    "longitude": 26.67374722,
    "province": "North West",
    "city": "Klerksdorp",
    "address": "Central Avenue"
  },
  {
    "retailer": "checkers",
    "store_code": "55047",
    "store_name": "Checkers Riverwalk",
    "latitude": -26.66126944000001,
    "longitude": 27.96921667,
    "province": "Gauteng",
    "city": "Vereeniging",
    "address": "Cnr Nile Drive and Genral Hertzog Rd"
  },
  {
    "retailer": "checkers",
    "store_code": "55089",
    "store_name": "Checkers Bartlett",
    "latitude": -26.167272,
    "longitude": 28.274638,
    "province": "Gauteng",
    "city": "Boksburg",
    "address": "100 Elizabeth Road Bartlett Ext 6"
  },
  {
    "retailer": "checkers",
    "store_code": "55160",
    "store_name": "Checkers De Grendel",
    "latitude": -33.84091,
    "longitude": 18.544327,
    "province": "Western Cape",
    "city": "Cape Town",
    "address": "Shop 1A Burgundy Square Corner of Tygeberg Valley Road and Burgundy Drive"
  },
  {
    "retailer": "checkers",
    "store_code": "55500",
    "store_name": "Checkers Bethlehem",
    "latitude": -28.24145277999999,
    "longitude": 28.32533889000001,
    "province": "Free State",
    "city": "Bethlehem",
    "address": "Erf 3371 Preekstoel Road"
  },
  {
    "retailer": "checkers",
    "store_code": "57073",
    "store_name": "Checkers York St Centre",
    "latitude": -33.97149999999999,
    "longitude": 22.444538889999976,
    "province": "Western Cape",
    "city": "George",
    "address": "Redefine Boulvard Cnr York Street & Plattner Blvd"
  },
  {
    "retailer": "checkers",
    "store_code": "57324",
    "store_name": "Checkers FX Oceans Mall",
    "latitude": -29.72409803,
    "longitude": 31.08539701,
    "province": "KwaZulu-Natal",
    "city": "Umhlanga Rocks",
    "address": "Shop 208 Oceans Mall 7 Lagoon Drive"
  },
  {
    "retailer": "checkers",
    "store_code": "57861",
    "store_name": "Checkers Mall Of The North",
    "latitude": -23.87389,
    "longitude": 29.51,
    "province": "Limpopo",
    "city": "Polokwane",
    "address": "Junction of N1 and R81"
  },
  {
    "retailer": "checkers",
    "store_code": "58029",
    "store_name": "Checkers Louis Trichardt",
    "latitude": -23.03934188518829,
    "longitude": 29.904684768347888,
    "province": "Limpopo",
    "city": "Louis Trichardt",
    "address": "Cnr Shongwosi Street and Munnik Avenue"
  },
  {
    "retailer": "checkers",
    "store_code": "58118",
    "store_name": "Checkers Bracken Gardens",
    "latitude": -26.32729,
    "longitude": 28.09836,
    "province": "Gauteng",
    "city": "Alberton",
    "address": "Cnr Hennie Alberts and Delphinium Str"
  },
  {
    "retailer": "checkers",
    "store_code": "58134",
    "store_name": "Checkers Allen's Nek",
    "latitude": -26.13426666999999,
    "longitude": 27.91138055999999,
    "province": "Gauteng",
    "city": "Roodepoort",
    "address": "Cnr Jim Fouche & Hendrik Potgieter Drive Allensnek Value Cntr"
  },
  {
    "retailer": "checkers",
    "store_code": "58142",
    "store_name": "Checkers Loftus",
    "latitude": -25.75172095657859,
    "longitude": 28.2235632470349,
    "province": "Gauteng",
    "city": "Pretoria",
    "address": "Corner Kirkness & Park Streets Arcadia"
  },
  {
    "retailer": "checkers",
    "store_code": "58150",
    "store_name": "Checkers Kyalami",
    "latitude": -25.98762,
    "longitude": 28.07303,
    "province": "Gauteng",
    "city": "Halfway House",
    "address": "Cnr Pitts Avenue, Main And Begonia Roads"
  },
  {
    "retailer": "checkers",
    "store_code": "58168",
    "store_name": "Checkers Brits Mall",
    "latitude": -25.64990094006168,
    "longitude": 27.80389818121449,
    "province": "North West",
    "city": "Brits",
    "address": "Shop 213 Brits Mall"
  },
  {
    "retailer": "checkers",
    "store_code": "58451",
    "store_name": "Checkers Tambotie Mall Randfontein",
    "latitude": -26.17185206704571,
    "longitude": 27.6906915207879,
    "province": "Gauteng",
    "city": "Randfontein",
    "address": "Cnr Malan And Lazaar Avenues"
  },
  {
    "retailer": "checkers",
    "store_code": "58469",
    "store_name": "Checkers East Rand Retail",
    "latitude": -26.18018333000001,
    "longitude": 28.24846667000001,
    "province": "Gauteng",
    "city": "Boksburg",
    "address": "113 North Rand Road"
  },
  {
    "retailer": "checkers",
    "store_code": "58477",
    "store_name": "Checkers Wingtip",
    "latitude": -25.65912583713338,
    "longitude": 28.243689156983407,
    "province": "Gauteng",
    "city": "Pretoria",
    "address": "Cnr Dr Swanepoel Rd & Klippan Street"
  },
  {
    "retailer": "checkers",
    "store_code": "58689",
    "store_name": "Checkers Hermanus",
    "latitude": -34.41661389,
    "longitude": 19.24245556,
    "province": "Western Cape",
    "city": "Hermanus",
    "address": "Cnr Royal and Lord Roberts Rds"
  },
  {
    "retailer": "checkers",
    "store_code": "58922",
    "store_name": "Checkers Goldfields",
    "latitude": -27.97738056,
    "longitude": 26.734119440000008,
    "province": "Free State",
    "city": "Welkom",
    "address": "Goldfields Mall Stateway Street"
  },
  {
    "retailer": "checkers",
    "store_code": "58964",
    "store_name": "Checkers Kwadukuza",
    "latitude": -29.33523822352648,
    "longitude": 31.29158405909912,
    "province": "KwaZulu-Natal",
    "city": "Stanger",
    "address": "Corner Chief Albert Luthuli St and Elizabeth St"
  },
  {
    "retailer": "checkers",
    "store_code": "59009",
    "store_name": "Checkers Welgelee Plein",
    "latitude": -33.65033332999999,
    "longitude": 19.00216667000003,
    "province": "Western Cape",
    "city": "Wellington",
    "address": "Cnr Champagne And Piet Retief Street"
  },
  {
    "retailer": "checkers",
    "store_code": "59180",
    "store_name": "Checkers Noordheuwel",
    "latitude": -26.09008333,
    "longitude": 27.81785555999999,
    "province": "Gauteng",
    "city": "Krugersdorp",
    "address": "Corner Of Lud Hersch And Robert Broom Drive"
  },
  {
    "retailer": "checkers",
    "store_code": "59774",
    "store_name": "Checkers Rock Cottage",
    "latitude": -26.10462,
    "longitude": 27.92707,
    "province": "Gauteng",
    "city": "Johannesburg",
    "address": "Cnr Christiaan De Wet and John Voster Road"
  },
  {
    "retailer": "checkers",
    "store_code": "59782",
    "store_name": "Checkers Hyper New Market",
    "latitude": -26.27870556,
    "longitude": 28.126033329999974,
    "province": "Gauteng",
    "city": "Alberton",
    "address": "Mall At Newmarket Cnr Heidelberg & Voortrekker Roads"
  },
  {
    "retailer": "checkers",
    "store_code": "6103",
    "store_name": "Checkers Wilrogate",
    "latitude": -26.12633332999999,
    "longitude": 27.84753055999999,
    "province": "Gauteng",
    "city": "Roodepoort",
    "address": "Wilrogate Shopping Centre Cnr C.R. Swart and Ontdekkers"
  },
  {
    "retailer": "checkers",
    "store_code": "6111",
    "store_name": "Checkers Northmead Square",
    "latitude": -26.162,
    "longitude": 28.324,
    "province": "Gauteng",
    "city": "Benoni",
    "address": "Northmead Square Cnr O'Reilly Merry and 14th Avenue"
  },
  {
    "retailer": "checkers",
    "store_code": "6129",
    "store_name": "Checkers St Georges Square",
    "latitude": -33.96348333,
    "longitude": 22.479224999999968,
    "province": "Western Cape",
    "city": "George",
    "address": "St Georges Square Centre Cnr Knysna Way and Derde Street"
  },
  {
    "retailer": "checkers",
    "store_code": "6250",
    "store_name": "Checkers Grahamstown",
    "latitude": -33.31062554662429,
    "longitude": 26.5245893710788,
    "province": "Eastern Cape",
    "city": "Grahamstown",
    "address": "The Carlton Centre 109 High Street"
  },
  {
    "retailer": "checkers",
    "store_code": "6268",
    "store_name": "Checkers Greenacres",
    "latitude": -33.95004443999999,
    "longitude": 25.58011944,
    "province": "Eastern Cape",
    "city": "Gqeberha",
    "address": "Greenacres Centre Cnr Ring and La Rochelle Road"
  },
  {
    "retailer": "checkers",
    "store_code": "6331",
    "store_name": "Checkers Heiderand",
    "latitude": -34.184302192816,
    "longitude": 22.11588619108803,
    "province": "Western Cape",
    "city": "Mossel Bay",
    "address": "Heiderand Mall Cnr Louis Fourie Rd & Melkhout St"
  },
  {
    "retailer": "checkers",
    "store_code": "63569",
    "store_name": "Checkers Ngebs City",
    "latitude": -31.5963614487147,
    "longitude": 28.78852808814288,
    "province": "Eastern Cape",
    "city": "Mthatha",
    "address": "33 Errol Spring Avenue Mthatha"
  },
  {
    "retailer": "checkers",
    "store_code": "6446",
    "store_name": "Checkers Hyper Parow",
    "latitude": -33.90637222000001,
    "longitude": 18.599233329999976,
    "province": "Western Cape",
    "city": "Cape Town",
    "address": "Sanlam Centre Cnr Voortrekker & De La Rey Roads"
  },
  {
    "retailer": "checkers",
    "store_code": "64492",
    "store_name": "Checkers Matlosana (Klerksdorp)",
    "latitude": -26.85029001640029,
    "longitude": 26.700744869405806,
    "province": "North West",
    "city": "Klerksdorp",
    "address": "Matlosana Mall Joe Slovo Drive (N12)"
  },
  {
    "retailer": "checkers",
    "store_code": "64581",
    "store_name": "Checkers Heidelberg",
    "latitude": -26.493837721918503,
    "longitude": 28.37139974995771,
    "province": "Gauteng",
    "city": "Heidelberg",
    "address": "Cnr N3 & R42 (Jacobs Street)"
  },
  {
    "retailer": "checkers",
    "store_code": "64599",
    "store_name": "Checkers Savannah Mall",
    "latitude": -23.90411944,
    "longitude": 29.48889999999998,
    "province": "Limpopo",
    "city": "Polokwane",
    "address": "Cnr Grimm And Thabo Mbeki Streets"
  },
  {
    "retailer": "checkers",
    "store_code": "64604",
    "store_name": "Checkers Wonderpark",
    "latitude": -25.6706060206382,
    "longitude": 28.11191421032503,
    "province": "Gauteng",
    "city": "Pretoria",
    "address": "Cnr Heinrich Avenue & Old Brits Rd"
  },
  {
    "retailer": "checkers",
    "store_code": "64646",
    "store_name": "Checkers Bayside (Mossel Bay)",
    "latitude": -34.18079444000001,
    "longitude": 22.14403889,
    "province": "Western Cape",
    "city": "Mossel Bay",
    "address": "Bayside Centre Corner Bland Street And Church Street"
  },
  {
    "retailer": "checkers",
    "store_code": "6501",
    "store_name": "Checkers Hyper N1 City",
    "latitude": -33.89099167,
    "longitude": 18.5618222,
    "province": "Western Cape",
    "city": "Goodwood",
    "address": "N1 City Shopping Centre Louwtjie Rothman Street"
  },
  {
    "retailer": "checkers",
    "store_code": "6519",
    "store_name": "Checkers Stellenbosch",
    "latitude": -33.93824167,
    "longitude": 18.85913333000001,
    "province": "Western Cape",
    "city": "Stellenbosch",
    "address": "Cnr Dorp and Mill Street"
  },
  {
    "retailer": "checkers",
    "store_code": "6551",
    "store_name": "Checkers Hyper Tokai",
    "latitude": -34.06333333000001,
    "longitude": 18.454405560000016,
    "province": "Western Cape",
    "city": "Cape Town",
    "address": "Shop G86, Blue Route Mall Corner Tokai Road and Vans Road"
  },
  {
    "retailer": "checkers",
    "store_code": "66868",
    "store_name": "Checkers Okavango Crossing",
    "latitude": -33.83963233,
    "longitude": 18.69509339,
    "province": "Western Cape",
    "city": "Kraaifontein",
    "address": "Okavango Crossing Corner of Langeberg Road and Okavango Road"
  },
  {
    "retailer": "checkers",
    "store_code": "6713",
    "store_name": "Checkers Margate",
    "latitude": -30.86423889,
    "longitude": 30.360802780000007,
    "province": "KwaZulu-Natal",
    "city": "Margate",
    "address": "Hibiscus Mall Corner of Wartski Drive and Windsor Avenue"
  },
  {
    "retailer": "checkers",
    "store_code": "6755",
    "store_name": "Checkers Scottburgh",
    "latitude": -30.2868966039616,
    "longitude": 30.754167313685375,
    "province": "KwaZulu-Natal",
    "city": "Scottburgh",
    "address": "92 Williamson Street"
  },
  {
    "retailer": "checkers",
    "store_code": "6763",
    "store_name": "Checkers Southway Mall",
    "latitude": -29.898775,
    "longitude": 30.97448055999999,
    "province": "KwaZulu-Natal",
    "city": "Rossburgh",
    "address": "27 Titren Road"
  },
  {
    "retailer": "checkers",
    "store_code": "6789",
    "store_name": "Checkers Durban North",
    "latitude": -29.77650833000002,
    "longitude": 31.04463611000001,
    "province": "KwaZulu-Natal",
    "city": "Durban",
    "address": "33 Mackeurten Avenue"
  },
  {
    "retailer": "checkers",
    "store_code": "6802",
    "store_name": "Checkers Queensburgh",
    "latitude": -29.88141944000001,
    "longitude": 30.91814443999999,
    "province": "KwaZulu-Natal",
    "city": "Malvern",
    "address": "Malvern Centre 155 Old Main Road"
  },
  {
    "retailer": "checkers",
    "store_code": "6810",
    "store_name": "Checkers Hyper Pavillion",
    "latitude": -29.8498,
    "longitude": 30.936,
    "province": "KwaZulu-Natal",
    "city": "Durban",
    "address": "The Pavillion Shopping Centre Cnr Harry Gwala Rd"
  },
  {
    "retailer": "checkers",
    "store_code": "6925",
    "store_name": "Checkers Upington",
    "latitude": -28.45659187120112,
    "longitude": 21.24798592118588,
    "province": "Northern Cape",
    "city": "Upington",
    "address": "Cnr Scott and Rivier Str"
  },
  {
    "retailer": "checkers",
    "store_code": "70132",
    "store_name": "Checkers Olivewood",
    "latitude": -26.03511720259748,
    "longitude": 28.273546562860815,
    "province": "Gauteng",
    "city": "Kempton Park",
    "address": "Olivewood Lifestyle Centre Corner of Grosvenor road and R21 Expressway"
  },
  {
    "retailer": "checkers",
    "store_code": "70166",
    "store_name": "Checkers FX Chartwell Corner",
    "latitude": -25.98649166999999,
    "longitude": 27.98580000000001,
    "province": "Gauteng",
    "city": "Bryanston",
    "address": "Corner Of Cedar Rd And Gateside Avenue"
  },
  {
    "retailer": "checkers",
    "store_code": "70174",
    "store_name": "Checkers FX Zambezi Junction",
    "latitude": -25.67989167,
    "longitude": 28.27290555999999,
    "province": "Gauteng",
    "city": "Pretoria",
    "address": "Corner of Sefako Makgatho Drive and Breed Street"
  },
  {
    "retailer": "checkers",
    "store_code": "70182",
    "store_name": "Checkers FX Ridgeview",
    "latitude": -26.123311,
    "longitude": 27.87447,
    "province": "Gauteng",
    "city": "Roodepoort",
    "address": "200 Ouklip Road Helderkruin, Roodepoort"
  },
  {
    "retailer": "checkers",
    "store_code": "70190",
    "store_name": "Checkers Foods WeltevredenPark",
    "latitude": -26.11271110999999,
    "longitude": 27.931516669999983,
    "province": "Gauteng",
    "city": "Roodepoort",
    "address": "Corner Of Cockspur Rd And Harebell Str Weltevreden Park"
  },
  {
    "retailer": "checkers",
    "store_code": "70344",
    "store_name": "Checkers Optenhorst",
    "latitude": -33.718364581562206,
    "longitude": 18.965343772805483,
    "province": "Western Cape",
    "city": "Paarl",
    "address": "Shop 5 Optenhorst Village Corner of Main Road and Optenhorst Street"
  },
  {
    "retailer": "checkers",
    "store_code": "70459",
    "store_name": "Checkers Foods Ballito Steps",
    "latitude": -29.53207481837652,
    "longitude": 31.221094764657135,
    "province": "KwaZulu-Natal",
    "city": "Durban",
    "address": "Boulevard Center, Jack Powell Road, Ballito,4110"
  },
  {
    "retailer": "checkers",
    "store_code": "7133",
    "store_name": "Checkers Pretoria North",
    "latitude": -25.6734493927982,
    "longitude": 28.17316116376889,
    "province": "Gauteng",
    "city": "Pretoria",
    "address": "Blaauw Village Cnr Emily Hobhouse Ave And Gerrit Maritz Str"
  },
  {
    "retailer": "checkers",
    "store_code": "71471",
    "store_name": "Checkers FX Mookgopong",
    "latitude": -24.521075,
    "longitude": 28.7109685,
    "province": "Limpopo",
    "city": "Mookgophong",
    "address": "Cnr Thabo Mbeki, 3rd Ave, 4th Str"
  },
  {
    "retailer": "checkers",
    "store_code": "71489",
    "store_name": "Checkers FX Merino Mall",
    "latitude": -26.53568352007999,
    "longitude": 29.99514877584271,
    "province": "Mpumalanga",
    "city": "Ermelo",
    "address": "Merino Mall 11 Voortrekker Street"
  },
  {
    "retailer": "checkers",
    "store_code": "7159",
    "store_name": "Checkers Hyper FX Centurion",
    "latitude": -25.85640555999998,
    "longitude": 28.186208330000014,
    "province": "Gauteng",
    "city": "Centurion",
    "address": "Shop 4A, Centurion Mall Gordon Hood Road"
  },
  {
    "retailer": "checkers",
    "store_code": "7175",
    "store_name": "Checkers Gezina",
    "latitude": -25.71962777999999,
    "longitude": 28.20651667,
    "province": "Gauteng",
    "city": "Pretoria",
    "address": "Gezina Galleries Corner Of 10th Avenue & Nico Smith Street"
  },
  {
    "retailer": "checkers",
    "store_code": "7298",
    "store_name": "Checkers Southgate",
    "latitude": -26.2676464192281,
    "longitude": 27.9819371008473,
    "province": "Gauteng",
    "city": "Johannesburg",
    "address": "Southgate Mall Cnr Columbine and Rifle Range Road"
  },
  {
    "retailer": "checkers",
    "store_code": "7303",
    "store_name": "Checkers Hyper Eastgate",
    "latitude": -26.18,
    "longitude": 28.118,
    "province": "Gauteng",
    "city": "Johannesburg",
    "address": "Shop DS001, Eastgate Shopping Centre 43 Bradford Road"
  },
  {
    "retailer": "checkers",
    "store_code": "7329",
    "store_name": "Checkers Hyper Sandton",
    "latitude": -26.1081969324243,
    "longitude": 28.05186510776322,
    "province": "Gauteng",
    "city": "Sandton",
    "address": "Sandton City Mall Cnr Alice Lane & 5th Street"
  },
  {
    "retailer": "checkers",
    "store_code": "7450",
    "store_name": "Checkers Hyper Boksburg",
    "latitude": -26.22707777999999,
    "longitude": 28.24581388999998,
    "province": "Gauteng",
    "city": "Boksburg",
    "address": "Cnr Leeupoort Street & Rondebult Road Parklands"
  },
  {
    "retailer": "checkers",
    "store_code": "7581",
    "store_name": "Checkers Cresta",
    "latitude": -26.13117221999999,
    "longitude": 27.974725000000014,
    "province": "Gauteng",
    "city": "Johannesburg",
    "address": "Shop U67 Cresta Shopping Centre Corner Of Beyers Naude Drive And Judges Avenue"
  },
  {
    "retailer": "checkers",
    "store_code": "7646",
    "store_name": "Checkers Hyper Westgate",
    "latitude": -26.13955832999999,
    "longitude": 27.86231111,
    "province": "Gauteng",
    "city": "Roodepoort",
    "address": "Westgate Shopping Centre Cnr Ontdekkers Road & Crouse Drive"
  },
  {
    "retailer": "checkers",
    "store_code": "7654",
    "store_name": "Checkers Hyper Kempton Park",
    "latitude": -26.103226337651176,
    "longitude": 28.22336957981072,
    "province": "Gauteng",
    "city": "Kempton Park",
    "address": "Shop 1 Festival Mall Corner of C.R. Swart Drive and Kelvin Street"
  },
  {
    "retailer": "checkers",
    "store_code": "7727",
    "store_name": "Checkers Hyper Bloemfontein",
    "latitude": -29.15743,
    "longitude": 26.19097,
    "province": "Free State",
    "city": "Bloemfontein",
    "address": "Fleurdal Mall Vereeniging Drive"
  },
  {
    "retailer": "checkers",
    "store_code": "7735",
    "store_name": "Checkers Hyper Edenvale",
    "latitude": -26.16203542337768,
    "longitude": 28.17088464900531,
    "province": "Gauteng",
    "city": "Germiston",
    "address": "Meadowdale Mall Van Riebeeck Avenue"
  },
  {
    "retailer": "checkers",
    "store_code": "7743",
    "store_name": "Checkers Hyper Mayville",
    "latitude": -25.7,
    "longitude": 28.184,
    "province": "Gauteng",
    "city": "Pretoria",
    "address": "Cnr Van Rensburg Street & Nienaber Avenue"
  },
  {
    "retailer": "checkers",
    "store_code": "78651",
    "store_name": "Checkers Blue Crane",
    "latitude": -26.28611667000001,
    "longitude": 28.09612222000001,
    "province": "Gauteng",
    "city": "Alberton",
    "address": "De Marionette Shopping Centre Corner Michelle Avenue And Blue Crane Drive"
  },
  {
    "retailer": "checkers",
    "store_code": "78677",
    "store_name": "Checkers Foods Lakefield",
    "latitude": -26.1788905472745,
    "longitude": 28.28903583259121,
    "province": "Gauteng",
    "city": "Benoni",
    "address": "Lakefield Shopping Centre 102 Main Road"
  },
  {
    "retailer": "checkers",
    "store_code": "79259",
    "store_name": "Checkers Foods Sunhill",
    "latitude": -26.02542222,
    "longitude": 28.066244439999966,
    "province": "Gauteng",
    "city": "Johannesburg",
    "address": "25 Tana Road"
  },
  {
    "retailer": "checkers",
    "store_code": "79403",
    "store_name": "Checkers FX Howick North",
    "latitude": -29.47589505,
    "longitude": 30.21825118,
    "province": "KwaZulu-Natal",
    "city": "Howick",
    "address": "Howick Main Shopping Centre Corner of Main Road and Currys Post Road"
  },
  {
    "retailer": "checkers",
    "store_code": "79445",
    "store_name": "Checkers FX Athlone Park",
    "latitude": -30.01853888999999,
    "longitude": 30.91310277999999,
    "province": "KwaZulu-Natal",
    "city": "Amanzimtoti",
    "address": "30 Prince Street Athlone Park"
  },
  {
    "retailer": "checkers",
    "store_code": "79461",
    "store_name": "Checkers FX Design Quarter",
    "latitude": -26.03084087,
    "longitude": 28.01086097,
    "province": "Gauteng",
    "city": "Johannesburg",
    "address": "Shop 1A Design Quarter Corner of Leslie Avenue and Winnie Mandela Drive"
  },
  {
    "retailer": "checkers",
    "store_code": "79495",
    "store_name": "Checkers Foods The Woods",
    "latitude": -26.1222994364309,
    "longitude": 28.029281560020703,
    "province": "Gauteng",
    "city": "Johannesburg",
    "address": "The Colony Shopping Centre 345 Jan Smuts Avenue"
  },
  {
    "retailer": "checkers",
    "store_code": "79665",
    "store_name": "Checkers Parys",
    "latitude": -26.90786002512249,
    "longitude": 27.44454695019031,
    "province": "Free State",
    "city": "Parys",
    "address": "11 Bree Street"
  },
  {
    "retailer": "checkers",
    "store_code": "81563",
    "store_name": "Checkers The Reef",
    "latitude": -26.25619637436479,
    "longitude": 28.1579987249426,
    "province": "Gauteng",
    "city": "Germiston",
    "address": "Corner Black Reef Road & Chris Street"
  },
  {
    "retailer": "checkers",
    "store_code": "82797",
    "store_name": "Checkers FX Whale Coast Mall",
    "latitude": -34.41539166999999,
    "longitude": 19.206855560000008,
    "province": "Western Cape",
    "city": "Hermanus",
    "address": "Whale Coast Mall, R43 Main Road"
  },
  {
    "retailer": "checkers",
    "store_code": "82802",
    "store_name": "Checkers Gordon's Bay Mall",
    "latitude": -34.15073,
    "longitude": 18.88156,
    "province": "Western Cape",
    "city": "Gordon's Bay",
    "address": "Gordon's Bay Shopping Centre Sir Lowry's Pass Road"
  },
  {
    "retailer": "checkers",
    "store_code": "82917",
    "store_name": "Checkers FX Plettenberg Bay Mall",
    "latitude": -34.04169444000001,
    "longitude": 23.37104443999999,
    "province": "Western Cape",
    "city": "Plettenberg Bay",
    "address": "77 Beacon Way"
  },
  {
    "retailer": "checkers",
    "store_code": "83044",
    "store_name": "Checkers Parys 2",
    "latitude": -26.90086256505191,
    "longitude": 27.460184421032,
    "province": "Free State",
    "city": "Parys",
    "address": "Buiten Street"
  },
  {
    "retailer": "checkers",
    "store_code": "83531",
    "store_name": "Checkers Constantia",
    "latitude": -34.02936666999999,
    "longitude": 18.445686109999983,
    "province": "Western Cape",
    "city": "Cape Town",
    "address": "Ladies Mile Road Constantia"
  },
  {
    "retailer": "checkers",
    "store_code": "83549",
    "store_name": "Checkers Sitari",
    "latitude": -34.05076676271051,
    "longitude": 18.779560986498016,
    "province": "Western Cape",
    "city": "Somerset West",
    "address": "Cnr Old Main Rd And Sunarbans Drive Sitari Estate"
  },
  {
    "retailer": "checkers",
    "store_code": "83719",
    "store_name": "Checkers Neighbourhood",
    "latitude": -26.15106603877211,
    "longitude": 28.12190078289941,
    "province": "Gauteng",
    "city": "Johannesburg",
    "address": "Corner Of Club Street And Linksfield Road Edenvale"
  },
  {
    "retailer": "checkers",
    "store_code": "83777",
    "store_name": "Checkers FX Forest Walk",
    "latitude": -25.77935745263789,
    "longitude": 28.2603538038274,
    "province": "Gauteng",
    "city": "Pretoria",
    "address": "Corner Of Maroelana Street And Pinaster Avenue"
  },
  {
    "retailer": "checkers",
    "store_code": "83785",
    "store_name": "Checkers Clubview",
    "latitude": -25.83938332999999,
    "longitude": 28.17819722,
    "province": "Gauteng",
    "city": "Centurion",
    "address": "94 Lyttelton Road, Cnr Von Willich Ave"
  },
  {
    "retailer": "checkers",
    "store_code": "83793",
    "store_name": "Checkers Rosebank Mall",
    "latitude": -26.14657499999998,
    "longitude": 28.04029166999999,
    "province": "Gauteng",
    "city": "Johannesburg",
    "address": "Rosebank Mall Corner of Bath Avenue and Baker Street"
  },
  {
    "retailer": "checkers",
    "store_code": "84008",
    "store_name": "Checkers Mooi River Junction",
    "latitude": -26.68318981246619,
    "longitude": 27.10043696832149,
    "province": "North West",
    "city": "Potchefstroom",
    "address": "MooiRivier Junction 424 Thabo Mbeki Road"
  },
  {
    "retailer": "checkers",
    "store_code": "85258",
    "store_name": "Checkers CC Rylands Village",
    "latitude": -33.97529444,
    "longitude": 18.53129444,
    "province": "Western Cape",
    "city": "Cape Town",
    "address": "Corner Of College Road And Pooke Road, Rylands"
  },
  {
    "retailer": "checkers",
    "store_code": "85266",
    "store_name": "Checkers FX Fairlands",
    "latitude": -26.11866,
    "longitude": 27.95529,
    "province": "Gauteng",
    "city": "Johannesburg",
    "address": "Corner Beyers Naude Dr & Wilson Rd"
  },
  {
    "retailer": "checkers",
    "store_code": "85274",
    "store_name": "Checkers The Glen",
    "latitude": -26.2682156543269,
    "longitude": 28.0506867368178,
    "province": "Gauteng",
    "city": "Johannesburg",
    "address": "Cnr Orpen Rd & Lois Ave"
  },
  {
    "retailer": "checkers",
    "store_code": "85282",
    "store_name": "Checkers FX White River",
    "latitude": -25.3355707731587,
    "longitude": 30.99886678045149,
    "province": "Mpumalanga",
    "city": "White River",
    "address": "Corner R537 & R40"
  },
  {
    "retailer": "checkers",
    "store_code": "85355",
    "store_name": "Checkers FX Irene Link",
    "latitude": -25.8622087294041,
    "longitude": 28.21265929408078,
    "province": "Gauteng",
    "city": "Centurion",
    "address": "Corner Alexandra Road And Impala Ave"
  },
  {
    "retailer": "checkers",
    "store_code": "85363",
    "store_name": "Checkers Makhado Crossing",
    "latitude": -23.04657,
    "longitude": 29.91836,
    "province": "Limpopo",
    "city": "Makhado",
    "address": "Cnr Of R524, N1 & Songozwi Streets"
  },
  {
    "retailer": "checkers",
    "store_code": "85444",
    "store_name": "Checkers Village",
    "latitude": -26.18325278,
    "longitude": 28.13507222,
    "province": "Gauteng",
    "city": "Johannesburg",
    "address": "Corner Of Van Buuren And Kloof Roads"
  },
  {
    "retailer": "checkers",
    "store_code": "85452",
    "store_name": "Checkers Magalies",
    "latitude": -25.62947,
    "longitude": 27.77786,
    "province": "North West",
    "city": "Brits",
    "address": "Corner Hendrik Verwoerd (R511) Ave & De Boer Street"
  },
  {
    "retailer": "checkers",
    "store_code": "85460",
    "store_name": "Checkers Rustenburg",
    "latitude": -25.66284792798852,
    "longitude": 27.225322097547608,
    "province": "North West",
    "city": "Rustenburg",
    "address": "Shop 7, Rustenburg Mall Swartruggens Road"
  },
  {
    "retailer": "checkers",
    "store_code": "85486",
    "store_name": "Checkers FX Woodlands Boulevard",
    "latitude": -25.8238926566041,
    "longitude": 28.315732953365128,
    "province": "Gauteng",
    "city": "Menlo Park",
    "address": "Woodlands Boulevard Shopping Centre, Shop 231b Corner Of Garsfontein And De Villebois Mareuil Roads"
  },
  {
    "retailer": "checkers",
    "store_code": "87276",
    "store_name": "Checkers Hyper FX Mall Of Africa",
    "latitude": -26.0159672272992,
    "longitude": 28.10646899634092,
    "province": "Gauteng",
    "city": "Midrand",
    "address": "Shop 1065, Mall of Africa Lone Creek & Magwa Crescents"
  },
  {
    "retailer": "checkers",
    "store_code": "87836",
    "store_name": "Checkers FX Drakenstein Sentrum",
    "latitude": -33.76510902999998,
    "longitude": 18.98427713000002,
    "province": "Western Cape",
    "city": "Paarl",
    "address": "Cnr Wemmershoek And Lustigan Rd Paarl"
  },
  {
    "retailer": "checkers",
    "store_code": "89252",
    "store_name": "Checkers Hilton",
    "latitude": -29.551879036031007,
    "longitude": 30.30065710452561,
    "province": "KwaZulu-Natal",
    "city": "Pietermaritzburg",
    "address": "Park Lane And Hilton Ave Leonard"
  },
  {
    "retailer": "checkers",
    "store_code": "903",
    "store_name": "Checkers Kroonstad",
    "latitude": -27.648675000000008,
    "longitude": 27.22950832999998,
    "province": "Free State",
    "city": "Kroonstad",
    "address": "Cnr van Zyl & Noord Ave"
  },
  {
    "retailer": "checkers",
    "store_code": "90879",
    "store_name": "Checkers Othongathi",
    "latitude": -29.57572918,
    "longitude": 31.111268044,
    "province": "KwaZulu-Natal",
    "city": "Tongaat",
    "address": "Shop 11 Othongathi Mall Corner of Ganie Street and Gopalall Hurbans Road"
  },
  {
    "retailer": "checkers",
    "store_code": "91867",
    "store_name": "Checkers Hyper Eden Meander",
    "latitude": -33.98352843785118,
    "longitude": 22.49839614798269,
    "province": "Western Cape",
    "city": "George",
    "address": "Eden Meander Lifestyle Centre 1 Knysna Road"
  },
  {
    "retailer": "checkers",
    "store_code": "93178",
    "store_name": "Checkers Hyper Checkers Hyper The Orchards",
    "latitude": -25.47253611,
    "longitude": 30.99558333,
    "province": "Mpumalanga",
    "city": "Nelspruit",
    "address": "Valley Hyper Corner of Du Preez Street and Samora Machel Drive"
  },
  {
    "retailer": "checkers",
    "store_code": "96249",
    "store_name": "Checkers FX Boardwalk PE",
    "latitude": -33.9836697663402,
    "longitude": 25.659168473662767,
    "province": "Eastern Cape",
    "city": "Gqeberha",
    "address": "Shop 45 Boardwalk Mall Marine Drive"
  },
  {
    "retailer": "checkers",
    "store_code": "96312",
    "store_name": "Checkers Mount Richmore Village",
    "latitude": -29.4897565730715,
    "longitude": 31.233384430395294,
    "province": "KwaZulu-Natal",
    "city": "Sheffield Beach",
    "address": "1\u00a0salt\u00a0rock Road Mount\u00a0richmore"
  },
  {
    "retailer": "checkers",
    "store_code": "96320",
    "store_name": "Checkers Midlands Mall",
    "latitude": -29.58104870705921,
    "longitude": 30.37515080486243,
    "province": "KwaZulu-Natal",
    "city": "Pietermaritzburg",
    "address": "50 Sanctuary Road Woodlands"
  },
  {
    "retailer": "checkers",
    "store_code": "96710",
    "store_name": "Checkers Table Bay Mall",
    "latitude": -33.78578443864911,
    "longitude": 18.48065177518431,
    "province": "Western Cape",
    "city": "Cape Town",
    "address": "Cnr West Coast & Sandown Rd Sunningdale"
  },
  {
    "retailer": "checkers",
    "store_code": "99247",
    "store_name": "Checkers Blueberry Square",
    "latitude": -26.07826016088799,
    "longitude": 27.92640070216111,
    "province": "Gauteng",
    "city": "Roodepoort",
    "address": "Blueberry Square Shopping Centre Corner Of Beyers Naude Drive And Blueberry Street"
  },
  {
    "retailer": "checkers",
    "store_code": "99865",
    "store_name": "Checkers Foods CF Westlake",
    "latitude": -34.079632,
    "longitude": 18.438173,
    "province": "Western Cape",
    "city": "Cape Town",
    "address": "Shop 1 Westlake Lifestyle Centre Westlake Drive"
  },
  {
    "retailer": "pnp",
    "store_code": "EC01",
    "store_name": "Pick n Pay Walmer Park",
    "latitude": -33.9804,
    "longitude": 25.5581,
    "province": "Eastern Cape",
    "city": "Walmer",
    "address": "Main Rd"
  },
  {
    "retailer": "pnp",
    "store_code": "EC02",
    "store_name": "Pick n Pay Langeberg Mall",
    "latitude": -34.1479,
    "longitude": 22.1034,
    "province": "Western Cape",
    "city": "Mossel Bay",
    "address": "Cnr Louis Fourie And Delport Drive"
  },
  {
    "retailer": "pnp",
    "store_code": "EC04",
    "store_name": "Pick n Pay Vincent Park",
    "latitude": -32.984,
    "longitude": 27.904,
    "province": "Eastern Cape",
    "city": "East London",
    "address": "Devereux Ave"
  },
  {
    "retailer": "pnp",
    "store_code": "EC05",
    "store_name": "Pick n Pay Uitenhage",
    "latitude": -33.7591,
    "longitude": 25.4081,
    "province": "Eastern Cape",
    "city": "Uitenhage",
    "address": "Graaf Reinett Rd"
  },
  {
    "retailer": "pnp",
    "store_code": "EC06",
    "store_name": "Pick n Pay George",
    "latitude": -33.96541,
    "longitude": 22.48356,
    "province": "Western Cape",
    "city": "George",
    "address": "Knysna Rd"
  },
  {
    "retailer": "pnp",
    "store_code": "EC07",
    "store_name": "Pick n Pay Garden Route Mall",
    "latitude": -33.9865,
    "longitude": 22.50421,
    "province": "Western Cape",
    "city": "George",
    "address": "1 Strand St"
  },
  {
    "retailer": "pnp",
    "store_code": "EC09",
    "store_name": "Pick n Pay Summerstrand",
    "latitude": -33.9869,
    "longitude": 25.6683,
    "province": "Eastern Cape",
    "city": "Summerstrand",
    "address": "C/O 8th Avenue and Torquay Street"
  },
  {
    "retailer": "pnp",
    "store_code": "EC11",
    "store_name": "Pick n Pay Knysna",
    "latitude": -34.037,
    "longitude": 23.04829,
    "province": "Western Cape",
    "city": "Knysna",
    "address": "Woodmill Lane"
  },
  {
    "retailer": "pnp",
    "store_code": "EC12",
    "store_name": "Pick n Pay Beacon Bay",
    "latitude": -32.9543,
    "longitude": 27.932,
    "province": "Eastern Cape",
    "city": "East London",
    "address": "Bonza Bay Rd, Beacon Bay"
  },
  {
    "retailer": "pnp",
    "store_code": "EC16",
    "store_name": "Pick n Pay Hyper Hyper Moffet",
    "latitude": -33.9563,
    "longitude": 25.5539,
    "province": "Eastern Cape",
    "city": "Port Elizabeth EC",
    "address": "Moffet Park"
  },
  {
    "retailer": "pnp",
    "store_code": "EC20",
    "store_name": "Pick n Pay PnP EM Commercial Road",
    "latitude": -33.9202,
    "longitude": 25.5926,
    "province": "Eastern Cape",
    "city": "Newton Park",
    "address": "Bowing&Piering,Commercial Rd"
  },
  {
    "retailer": "pnp",
    "store_code": "EC23",
    "store_name": "Pick n Pay PnP EM Southernwood",
    "latitude": -33.00443,
    "longitude": 27.90043,
    "province": "Eastern Cape",
    "city": "East London",
    "address": "Oxford Street"
  },
  {
    "retailer": "pnp",
    "store_code": "EC24",
    "store_name": "Pick n Pay PnP EM Mthatha Mall",
    "latitude": -31.597125,
    "longitude": 28.787967,
    "province": "Eastern Cape",
    "city": "Mthatha",
    "address": "Errol Spring Ave"
  },
  {
    "retailer": "pnp",
    "store_code": "EC25",
    "store_name": "Pick n Pay Bay West",
    "latitude": -33.95214,
    "longitude": 25.45942,
    "province": "Eastern Cape",
    "city": "Port Elizabeth",
    "address": "100 Baywest Boulevard"
  },
  {
    "retailer": "pnp",
    "store_code": "EC27",
    "store_name": "Pick n Pay Local PnP EM Bluewater Bay",
    "latitude": -33.850896,
    "longitude": 25.630916,
    "province": "Eastern Cape",
    "city": "Bluewater Bay",
    "address": "Eileen Drive"
  },
  {
    "retailer": "pnp",
    "store_code": "EC29",
    "store_name": "Pick n Pay Boardwalk Mall",
    "latitude": -33.98375,
    "longitude": 25.65907,
    "province": "Eastern Cape",
    "city": "Port Elizabeth",
    "address": "2nd Avenue"
  },
  {
    "retailer": "pnp",
    "store_code": "EC30",
    "store_name": "Pick n Pay Plettenberg Bay",
    "latitude": -34.04226,
    "longitude": 23.36944,
    "province": "Western Cape",
    "city": "Plettenberg Bay",
    "address": "Beacon Way"
  },
  {
    "retailer": "pnp",
    "store_code": "EF01",
    "store_name": "Pick n Pay Family Family Fountains Mall",
    "latitude": -34.03175,
    "longitude": 24.8988,
    "province": "Eastern Cape",
    "city": "Jeffrey'S Bay",
    "address": "Cnr R103 to Humansdorp and St Francis St"
  },
  {
    "retailer": "pnp",
    "store_code": "EF02",
    "store_name": "Pick n Pay Family Family Oudtshoorn",
    "latitude": -33.5913,
    "longitude": 22.2003,
    "province": "Western Cape",
    "city": "Oudtshoorn",
    "address": "Voortrekker Rd"
  },
  {
    "retailer": "pnp",
    "store_code": "EF04",
    "store_name": "Pick n Pay Family Family Greenfields",
    "latitude": -33.0352,
    "longitude": 27.866,
    "province": "Eastern Cape",
    "city": "GREENFIELDS, EAST LONDON",
    "address": "C/O SETTLERS WAY&CLOVELLEY RD"
  },
  {
    "retailer": "pnp",
    "store_code": "EF05",
    "store_name": "Pick n Pay Family Family Queenstown",
    "latitude": -31.904,
    "longitude": 26.8894,
    "province": "Eastern Cape",
    "city": "Queenstown",
    "address": "Brewery Rd, Kumani"
  },
  {
    "retailer": "pnp",
    "store_code": "EF06",
    "store_name": "Pick n Pay Family PnP EM Umtata",
    "latitude": -31.5998,
    "longitude": 28.7747,
    "province": "Eastern Cape",
    "city": "Umtata",
    "address": "2 Errol Spring Ave"
  },
  {
    "retailer": "pnp",
    "store_code": "EF07",
    "store_name": "Pick n Pay Family Family Aliwal North",
    "latitude": -30.6908,
    "longitude": 26.7094,
    "province": "Eastern Cape",
    "city": "Aliwal North",
    "address": "33 Somerset St"
  },
  {
    "retailer": "pnp",
    "store_code": "EF10",
    "store_name": "Pick n Pay Family Family The Gardens",
    "latitude": -33.9704,
    "longitude": 25.5266,
    "province": "Eastern Cape",
    "city": "Port Elizabeth",
    "address": "166 Circular Drive"
  },
  {
    "retailer": "pnp",
    "store_code": "EF11",
    "store_name": "Pick n Pay Family Family Grahamstown",
    "latitude": -33.3089,
    "longitude": 26.5212,
    "province": "Eastern Cape",
    "city": "Grahamstown",
    "address": "22 African St"
  },
  {
    "retailer": "pnp",
    "store_code": "EF12",
    "store_name": "Pick n Pay Family Family Port Alfred",
    "latitude": -33.5939,
    "longitude": 26.8852,
    "province": "Eastern Cape",
    "city": "Port Alfred",
    "address": "Cnr Masonic&Cilligman St"
  },
  {
    "retailer": "pnp",
    "store_code": "EF14",
    "store_name": "Pick n Pay Family Family George",
    "latitude": -33.9578,
    "longitude": 22.46595,
    "province": "Western Cape",
    "city": "George",
    "address": "Bodorp"
  },
  {
    "retailer": "pnp",
    "store_code": "EF16",
    "store_name": "Pick n Pay Family Family King Williams Town",
    "latitude": -32.874,
    "longitude": 27.3907,
    "province": "Eastern Cape",
    "city": "King Williams Town",
    "address": "Cnr Alexander and Durban Road"
  },
  {
    "retailer": "pnp",
    "store_code": "EF18",
    "store_name": "Pick n Pay Family PnP EM Mdantsane City",
    "latitude": -32.9352,
    "longitude": 27.7407,
    "province": "Eastern Cape",
    "city": "Mdantsane - East London",
    "address": "Cnr Qumza Highway & Biuie Rd"
  },
  {
    "retailer": "pnp",
    "store_code": "EF21",
    "store_name": "Pick n Pay Family Family Sedgefield",
    "latitude": -34.01499687,
    "longitude": 22.801,
    "province": "Western Cape",
    "city": "Sedgefield",
    "address": "Cnr King Fisher and Flamingo Road"
  },
  {
    "retailer": "pnp",
    "store_code": "EF22",
    "store_name": "Pick n Pay Family Family Linton Grange",
    "latitude": -33.94336,
    "longitude": 25.51401,
    "province": "Eastern Cape",
    "city": "Eastern Cape",
    "address": "10 Primrose Square"
  },
  {
    "retailer": "pnp",
    "store_code": "EF23",
    "store_name": "Pick n Pay Family Family Graaff-Reinet",
    "latitude": -32.253622,
    "longitude": 24.53806,
    "province": "Eastern Cape",
    "city": "Easten Cape",
    "address": "Church Street"
  },
  {
    "retailer": "pnp",
    "store_code": "EF28",
    "store_name": "Pick n Pay Family Family Hartenbos Strandoord",
    "latitude": -34.12688635,
    "longitude": 22.118,
    "province": "Western Cape",
    "city": "Eastern Cape",
    "address": "ERF 221 Hartenbos Seefront"
  },
  {
    "retailer": "pnp",
    "store_code": "EF29",
    "store_name": "Pick n Pay Family Family Stutterheim",
    "latitude": -32.57177,
    "longitude": 27.42899,
    "province": "Eastern Cape",
    "city": "Stutterheim",
    "address": "Cnr of Maclean and Brownlee Street"
  },
  {
    "retailer": "pnp",
    "store_code": "EF30",
    "store_name": "Pick n Pay Family Family Fraaiuitsig",
    "latitude": -34.0795,
    "longitude": 22.1496,
    "province": "Western Cape",
    "city": "Eastern Cape",
    "address": "33 Brinkley street"
  },
  {
    "retailer": "pnp",
    "store_code": "EF32",
    "store_name": "Pick n Pay Family Family York Street",
    "latitude": -33.96324,
    "longitude": 22.45259,
    "province": "Western Cape",
    "city": "GEORGE",
    "address": "York Street"
  },
  {
    "retailer": "pnp",
    "store_code": "EF33",
    "store_name": "Pick n Pay Family Family Newton Park",
    "latitude": -33.94909,
    "longitude": 25.56407,
    "province": "Eastern Cape",
    "city": "Newton Park",
    "address": "4th Avenue Newton Park"
  },
  {
    "retailer": "pnp",
    "store_code": "EF34",
    "store_name": "Pick n Pay Family Family Walker Drive",
    "latitude": -33.9584,
    "longitude": 25.5033,
    "province": "Eastern Cape",
    "city": "Eastern Cape",
    "address": "Walker Drive Sherwood"
  },
  {
    "retailer": "pnp",
    "store_code": "EF35",
    "store_name": "Pick n Pay Family Family Heugh Road",
    "latitude": -33.98048,
    "longitude": 25.59861,
    "province": "Eastern Cape",
    "city": "Port Elizabeth",
    "address": "108 Heugh Road"
  },
  {
    "retailer": "pnp",
    "store_code": "EF36",
    "store_name": "Pick n Pay Family Family Despatch",
    "latitude": -33.802295,
    "longitude": 25.475882,
    "province": "Eastern Cape",
    "city": "Despatch Central",
    "address": "Main Street"
  },
  {
    "retailer": "pnp",
    "store_code": "EF39",
    "store_name": "Pick n Pay Family Family Makana",
    "latitude": -33.312658,
    "longitude": 26.53117,
    "province": "Eastern Cape",
    "city": "Grahamstown",
    "address": "68 Bathurst Street"
  },
  {
    "retailer": "pnp",
    "store_code": "EF41",
    "store_name": "Pick n Pay Family Family Pacaltsdorp",
    "latitude": -34.013686,
    "longitude": 22.450207,
    "province": "Western Cape",
    "city": "Pacaltsdorp",
    "address": "Beach Road"
  },
  {
    "retailer": "pnp",
    "store_code": "EF42",
    "store_name": "Pick n Pay Family Family Frost Street",
    "latitude": -31.887756,
    "longitude": 26.874769,
    "province": "Eastern Cape",
    "city": "Queenstown",
    "address": "Frost street"
  },
  {
    "retailer": "pnp",
    "store_code": "EF44",
    "store_name": "Pick n Pay Family Family Summerstrand",
    "latitude": -33.5939,
    "longitude": 26.8852,
    "province": "Eastern Cape",
    "city": "Summerstrand",
    "address": "Beach Rd, Retief Plein"
  },
  {
    "retailer": "pnp",
    "store_code": "EF45",
    "store_name": "Pick n Pay Family Family Cleary Park",
    "latitude": -33.89425,
    "longitude": 25.526715,
    "province": "Eastern Cape",
    "city": "Gqeberha",
    "address": "Norman Middleton & Cleary Park"
  },
  {
    "retailer": "pnp",
    "store_code": "EG02",
    "store_name": "Pick n Pay Family Future Site",
    "latitude": -31.904,
    "longitude": 26.8894,
    "province": "Eastern Cape",
    "city": "",
    "address": ""
  },
  {
    "retailer": "pnp",
    "store_code": "EO01",
    "store_name": "Pick n Pay Express BP PnP Greenacres",
    "latitude": -33.952456,
    "longitude": 25.57676,
    "province": "Eastern Cape",
    "city": "Port Elizabeth",
    "address": "250 Cape Road"
  },
  {
    "retailer": "pnp",
    "store_code": "EO02",
    "store_name": "Pick n Pay Express BP PnP Jeffreys Bay",
    "latitude": -34.04051,
    "longitude": 24.92706,
    "province": "Eastern Cape",
    "city": "Jeffreys Bay",
    "address": "Cnr Da Gama Road & Sable Street"
  },
  {
    "retailer": "pnp",
    "store_code": "EO03",
    "store_name": "Pick n Pay Express BP PnP 222 Service Station",
    "latitude": -33.002776,
    "longitude": 27.90594,
    "province": "Eastern Cape",
    "city": "East London",
    "address": "10 Gately Street"
  },
  {
    "retailer": "pnp",
    "store_code": "EO04",
    "store_name": "Pick n Pay Express BP PnP Stanford Road",
    "latitude": -33.91982,
    "longitude": 25.564558,
    "province": "Eastern Cape",
    "city": "Port Elizabeth",
    "address": "Stanford Road"
  },
  {
    "retailer": "pnp",
    "store_code": "EO05",
    "store_name": "Pick n Pay Express BP PnP Berea EL",
    "latitude": -32.9929442034608,
    "longitude": 27.911335229,
    "province": "Eastern Cape",
    "city": "East London",
    "address": "Pearce Street"
  },
  {
    "retailer": "pnp",
    "store_code": "EO06",
    "store_name": "Pick n Pay Express BP PnP Walmer Gardens",
    "latitude": -33.9807428793909,
    "longitude": 25.579814314,
    "province": "Eastern Cape",
    "city": "Port Elizabeth",
    "address": "Cnr Main Rd & 10th Ave"
  },
  {
    "retailer": "pnp",
    "store_code": "EO07",
    "store_name": "Pick n Pay Express BP PnP Motorhaven",
    "latitude": -33.01836,
    "longitude": 27.911339,
    "province": "Eastern Cape",
    "city": "East London",
    "address": "Fleet Street"
  },
  {
    "retailer": "pnp",
    "store_code": "EO08",
    "store_name": "Pick n Pay Express BP PnP Fiveways SS",
    "latitude": -33.96046,
    "longitude": 25.601975,
    "province": "Eastern Cape",
    "city": "Port Elizabeth",
    "address": "Cnr Cape & Albany Roads"
  },
  {
    "retailer": "pnp",
    "store_code": "EO09",
    "store_name": "Pick n Pay Express BP PnP King",
    "latitude": -32.888561,
    "longitude": 27.398775,
    "province": "Eastern Cape",
    "city": "King Williams Town",
    "address": "Alexandra Road"
  },
  {
    "retailer": "pnp",
    "store_code": "EO10",
    "store_name": "Pick n Pay Express BP PnP N2 George",
    "latitude": -33.971365,
    "longitude": 22.468053,
    "province": "Eastern Cape",
    "city": "George",
    "address": "N2 Highway George"
  },
  {
    "retailer": "pnp",
    "store_code": "FD01",
    "store_name": "Pick n Pay River Walk",
    "latitude": -24.67661883,
    "longitude": 25.93524456,
    "province": "",
    "city": "Gaborone",
    "address": "Shop No: 12, Riverwalk, The Village"
  },
  {
    "retailer": "pnp",
    "store_code": "FD03",
    "store_name": "Pick n Pay Sarona",
    "latitude": -24.614006,
    "longitude": 25.948444,
    "province": "",
    "city": "Gaborone",
    "address": "Limpopo Drive, Extension 40"
  },
  {
    "retailer": "pnp",
    "store_code": "FD04",
    "store_name": "Pick n Pay The Fields",
    "latitude": -24.655751,
    "longitude": 25.905586,
    "province": "",
    "city": "Gaborone",
    "address": "Plot 54349"
  },
  {
    "retailer": "pnp",
    "store_code": "FD05",
    "store_name": "Pick n Pay Toro Junction",
    "latitude": -24.6059181,
    "longitude": 25.93159676,
    "province": "",
    "city": "Francistown",
    "address": "Plot 41334,Tati River South"
  },
  {
    "retailer": "pnp",
    "store_code": "FD06",
    "store_name": "Pick n Pay Teemane",
    "latitude": -24.6059181,
    "longitude": 25.93159676,
    "province": "",
    "city": "Teemane",
    "address": "Plot 5180-5181"
  },
  {
    "retailer": "pnp",
    "store_code": "FD07",
    "store_name": "Pick n Pay Hillside",
    "latitude": -24.680944,
    "longitude": 25.87683791,
    "province": "",
    "city": "Gaborone",
    "address": "A1 Gaborone"
  },
  {
    "retailer": "pnp",
    "store_code": "FD11",
    "store_name": "Pick n Pay Sebele",
    "latitude": -24.6059181,
    "longitude": 25.93159676,
    "province": "",
    "city": "Gaborone",
    "address": "62417 Block 10 Sebele Shopping Centre"
  },
  {
    "retailer": "pnp",
    "store_code": "FD13",
    "store_name": "Pick n Pay Lobatse",
    "latitude": -25.22505311,
    "longitude": 25.66985607,
    "province": "",
    "city": "Lobatse Shopping Center, Khama Avenue",
    "address": "Plot 189, Unit 4"
  },
  {
    "retailer": "pnp",
    "store_code": "FD14",
    "store_name": "Pick n Pay Phikwe",
    "latitude": -24.67661883,
    "longitude": 25.93524456,
    "province": "",
    "city": "Selebi Phikwe",
    "address": "Plot 6568, Tshekedi Road"
  },
  {
    "retailer": "pnp",
    "store_code": "FD16",
    "store_name": "Pick n Pay Southring Mall",
    "latitude": -24.66794186,
    "longitude": 25.92015982,
    "province": "",
    "city": "Gaborone",
    "address": "Kalinda Road"
  },
  {
    "retailer": "pnp",
    "store_code": "FP01",
    "store_name": "PnP Go PnPGO The Village",
    "latitude": -24.669384,
    "longitude": 25.942291,
    "province": "",
    "city": "Gaborone",
    "address": "8WJR+7V4"
  },
  {
    "retailer": "pnp",
    "store_code": "FP02",
    "store_name": "PnP Go PnPGO Bus Stop",
    "latitude": -24.65846,
    "longitude": 25.901296,
    "province": "",
    "city": "Gaborone",
    "address": "Bus Rank, Lot 13964"
  },
  {
    "retailer": "pnp",
    "store_code": "GC02",
    "store_name": "Pick n Pay Blackheath",
    "latitude": -26.12824,
    "longitude": 27.96778,
    "province": "Gauteng",
    "city": "Blackheath",
    "address": "Beyers Naude Drive"
  },
  {
    "retailer": "pnp",
    "store_code": "GC04",
    "store_name": "Pick n Pay Bedfordview",
    "latitude": -26.1885,
    "longitude": 28.1225,
    "province": "Gauteng",
    "city": "Bedfordview",
    "address": "Cnr Smith&Kirkby Rd"
  },
  {
    "retailer": "pnp",
    "store_code": "GC05",
    "store_name": "Pick n Pay Kensington",
    "latitude": -26.1831,
    "longitude": 28.1161,
    "province": "Gauteng",
    "city": "Kensington",
    "address": "Cnr Allum & Cumberland Rd"
  },
  {
    "retailer": "pnp",
    "store_code": "GC06",
    "store_name": "Pick n Pay Florida",
    "latitude": -26.1668,
    "longitude": 27.9271,
    "province": "Gauteng",
    "city": "Florida",
    "address": "Ontdekkers Rd"
  },
  {
    "retailer": "pnp",
    "store_code": "GC07",
    "store_name": "Pick n Pay The Glen",
    "latitude": -26.2669,
    "longitude": 28.0512,
    "province": "Gauteng",
    "city": "Oakdene",
    "address": "9 Letaba St"
  },
  {
    "retailer": "pnp",
    "store_code": "GC08",
    "store_name": "Pick n Pay Three Rivers",
    "latitude": -26.6625,
    "longitude": 27.9713,
    "province": "Gauteng",
    "city": "Vereeniging",
    "address": "Nile Drive"
  },
  {
    "retailer": "pnp",
    "store_code": "GC09",
    "store_name": "Pick n Pay Key West",
    "latitude": -26.08805,
    "longitude": 27.78052,
    "province": "Gauteng",
    "city": "Krugersdorp",
    "address": "Cnr Paardekraal&Viljoen St"
  },
  {
    "retailer": "pnp",
    "store_code": "GC10",
    "store_name": "Pick n Pay Sunward Park",
    "latitude": -26.2602,
    "longitude": 28.2547,
    "province": "Gauteng",
    "city": "Sunward Park",
    "address": "Cnr Duiker&Kingfisher Rd"
  },
  {
    "retailer": "pnp",
    "store_code": "GC11",
    "store_name": "Pick n Pay Lonehill",
    "latitude": -26.0146,
    "longitude": 28.0253,
    "province": "Gauteng",
    "city": "Sandton",
    "address": "Lonehill Boulevard"
  },
  {
    "retailer": "pnp",
    "store_code": "GC12",
    "store_name": "Pick n Pay Rosebank",
    "latitude": -26.14608,
    "longitude": 28.04183,
    "province": "Gauteng",
    "city": "Rosebank",
    "address": "Baker St"
  },
  {
    "retailer": "pnp",
    "store_code": "GC13",
    "store_name": "Pick n Pay Benmore",
    "latitude": -26.1002,
    "longitude": 28.0498,
    "province": "Gauteng",
    "city": "Sandton",
    "address": "Cnr West&Benmore St"
  },
  {
    "retailer": "pnp",
    "store_code": "GC15",
    "store_name": "Pick n Pay Killarney",
    "latitude": -26.1666,
    "longitude": 28.0538,
    "province": "Gauteng",
    "city": "Killarney",
    "address": "Riviera Rd"
  },
  {
    "retailer": "pnp",
    "store_code": "GC16",
    "store_name": "Pick n Pay Krugersdorp",
    "latitude": -26.0965,
    "longitude": 27.80286,
    "province": "Gauteng",
    "city": "Krugersdorp",
    "address": "Cnr Bell St&Shannon Drive"
  },